332.4458 $GNRMC,121005.95,A,5220.44319,N,00448.53208,E,0.004,,141119,,,A,V*1C
332.5521 $GNRMC,121006.05,A,5220.44319,N,00448.53209,E,0.067,,141119,,,A,V*12
332.6429 $GNRMC,121006.15,A,5220.44319,N,00448.53209,E,0.028,,141119,,,A,V*18
332.7421 $GNRMC,121006.25,A,5220.44319,N,00448.53209,E,0.016,,141119,,,A,V*16
332.8421 $GNRMC,121006.35,A,5220.44319,N,00448.53209,E,0.018,,141119,,,A,V*19
332.9426 $GNRMC,121006.45,A,5220.44319,N,00448.53209,E,0.055,,141119,,,A,V*17
333.042 $GNRMC,121006.55,A,5220.44320,N,00448.53209,E,0.071,,141119,,,A,V*1A
333.1429 $GNRMC,121006.65,A,5220.44320,N,00448.53209,E,0.056,,141119,,,A,V*1C
333.2422 $GNRMC,121006.75,A,5220.44320,N,00448.53209,E,0.027,,141119,,,A,V*1B
333.3399 $GNRMC,121006.85,A,5220.44320,N,00448.53209,E,0.018,,141119,,,A,V*18
333.4453 $GNRMC,121006.95,A,5220.44320,N,00448.53209,E,0.006,,141119,,,A,V*16
333.5497 $GNRMC,121007.05,A,5220.44320,N,00448.53209,E,0.032,,141119,,,A,V*19
333.6422 $GNRMC,121007.15,A,5220.44320,N,00448.53209,E,0.040,,141119,,,A,V*1D
333.7429 $GNRMC,121007.25,A,5220.44320,N,00448.53209,E,0.052,,141119,,,A,V*1D
333.8428 $GNRMC,121007.35,A,5220.44320,N,00448.53209,E,0.031,,141119,,,A,V*19
333.9421 $GNRMC,121007.45,A,5220.44320,N,00448.53209,E,0.012,,141119,,,A,V*1F
334.0423 $GNRMC,121007.55,A,5220.44320,N,00448.53209,E,0.025,,141119,,,A,V*1A
334.1428 $GNRMC,121007.65,A,5220.44321,N,00448.53209,E,0.006,,141119,,,A,V*19
334.2402 $GNRMC,121007.75,A,5220.44321,N,00448.53209,E,0.022,,141119,,,A,V*1E
334.3401 $GNRMC,121007.85,A,5220.44321,N,00448.53209,E,0.021,,141119,,,A,V*12
334.4488 $GNRMC,121007.95,A,5220.44321,N,00448.53209,E,0.013,,141119,,,A,V*12
334.5519 $GNRMC,121008.05,A,5220.44321,N,00448.53209,E,0.043,,141119,,,A,V*11
334.6443 $GNRMC,121008.15,A,5220.44321,N,00448.53209,E,0.005,,141119,,,A,V*12
334.7432 $GNRMC,121008.25,A,5220.44321,N,00448.53209,E,0.037,,141119,,,A,V*10
334.8422 $GNRMC,121008.35,A,5220.44321,N,00448.53209,E,0.071,,141119,,,A,V*13
334.9421 $GNRMC,121008.45,A,5220.44321,N,00448.53209,E,0.014,,141119,,,A,V*17
335.0423 $GNRMC,121008.55,A,5220.44321,N,00448.53209,E,0.006,,141119,,,A,V*15
335.1411 $GNRMC,121008.65,A,5220.44321,N,00448.53209,E,0.047,,141119,,,A,V*13
335.2398 $GNRMC,121008.75,A,5220.44322,N,00448.53209,E,0.018,,141119,,,A,V*1B
335.342 $GNRMC,121008.85,A,5220.44322,N,00448.53209,E,0.023,,141119,,,A,V*1C
335.4473 $GNRMC,121008.95,A,5220.44322,N,00448.53209,E,0.016,,141119,,,A,V*1B
335.5482 $GNRMC,121009.05,A,5220.44322,N,00448.53210,E,0.044,,141119,,,A,V*1C
335.6452 $GNRMC,121009.15,A,5220.44322,N,00448.53210,E,0.010,,141119,,,A,V*1C
335.743 $GNRMC,121009.25,A,5220.44322,N,00448.53210,E,0.009,,141119,,,A,V*17
335.8432 $GNRMC,121009.35,A,5220.44322,N,00448.53210,E,0.010,,141119,,,A,V*1E
335.9428 $GNRMC,121009.45,A,5220.44322,N,00448.53210,E,0.025,,141119,,,A,V*1F
336.0411 $GNRMC,121009.55,A,5220.44322,N,00448.53210,E,0.024,,141119,,,A,V*1F
336.141 $GNRMC,121009.65,A,5220.44323,N,00448.53210,E,0.018,,141119,,,A,V*12
336.2426 $GNRMC,121009.75,A,5220.44323,N,00448.53210,E,0.019,,141119,,,A,V*12
336.3418 $GNRMC,121009.85,A,5220.44323,N,00448.53210,E,0.036,,141119,,,A,V*10
336.448 $GNRMC,121009.95,A,5220.44323,N,00448.53210,E,0.026,,141119,,,A,V*10
336.5552 $GNRMC,121010.05,A,5220.44323,N,00448.53210,E,0.020,,141119,,,A,V*17
336.6421 $GNRMC,121010.15,A,5220.44323,N,00448.53210,E,0.016,,141119,,,A,V*13
336.7429 $GNRMC,121010.25,A,5220.44323,N,00448.53210,E,0.011,,141119,,,A,V*17
336.8427 $GNRMC,121010.35,A,5220.44323,N,00448.53210,E,0.039,,141119,,,A,V*1C
336.9402 $GNRMC,121010.45,A,5220.44323,N,00448.53210,E,0.025,,141119,,,A,V*16
337.0403 $GNRMC,121010.55,A,5220.44323,N,00448.53210,E,0.004,,141119,,,A,V*14
337.1431 $GNRMC,121010.65,A,5220.44323,N,00448.53210,E,0.037,,141119,,,A,V*17
337.2419 $GNRMC,121010.75,A,5220.44324,N,00448.53210,E,0.007,,141119,,,A,V*12
337.3421 $GNRMC,121010.85,A,5220.44324,N,00448.53210,E,0.021,,141119,,,A,V*19
337.4486 $GNRMC,121010.95,A,5220.44324,N,00448.53210,E,0.016,,141119,,,A,V*1C
337.5488 $GNRMC,121011.05,A,5220.44324,N,00448.53210,E,0.023,,141119,,,A,V*12
337.644 $GNRMC,121011.15,A,5220.44324,N,00448.53211,E,0.006,,141119,,,A,V*15
337.7428 $GNRMC,121011.25,A,5220.44324,N,00448.53211,E,0.009,,141119,,,A,V*19
337.8402 $GNRMC,121011.35,A,5220.44324,N,00448.53211,E,0.011,,141119,,,A,V*11
337.9409 $GNRMC,121011.45,A,5220.44324,N,00448.53211,E,0.016,,141119,,,A,V*11
338.0428 $GNRMC,121011.55,A,5220.44324,N,00448.53211,E,0.030,,141119,,,A,V*14
338.1419 $GNRMC,121011.65,A,5220.44324,N,00448.53211,E,0.028,,141119,,,A,V*1E
338.2422 $GNRMC,121011.75,A,5220.44324,N,00448.53211,E,0.014,,141119,,,A,V*10
338.3426 $GNRMC,121011.85,A,5220.44325,N,00448.53211,E,0.029,,141119,,,A,V*10
338.4479 $GNRMC,121011.95,A,5220.44325,N,00448.53211,E,0.044,,141119,,,A,V*1A
338.5561 $GNRMC,121012.05,A,5220.44325,N,00448.53211,E,0.032,,141119,,,A,V*11
338.6442 $GNRMC,121012.15,A,5220.44325,N,00448.53211,E,0.014,,141119,,,A,V*14
338.7403 $GNRMC,121012.25,A,5220.44325,N,00448.53211,E,0.027,,141119,,,A,V*17
338.8409 $GNRMC,121012.35,A,5220.44325,N,00448.53211,E,0.042,,141119,,,A,V*15
338.9429 $GNRMC,121012.45,A,5220.44325,N,00448.53211,E,0.014,,141119,,,A,V*11
339.0421 $GNRMC,121012.55,A,5220.44325,N,00448.53212,E,0.023,,141119,,,A,V*17
339.1431 $GNRMC,121012.65,A,5220.44325,N,00448.53212,E,0.022,,141119,,,A,V*15
339.2423 $GNRMC,121012.75,A,5220.44325,N,00448.53212,E,0.026,,141119,,,A,V*10
339.3413 $GNRMC,121012.85,A,5220.44325,N,00448.53212,E,0.040,,141119,,,A,V*1F
339.448 $GNRMC,121012.95,A,5220.44326,N,00448.53212,E,0.020,,141119,,,A,V*1B
339.5502 $GNRMC,121013.05,A,5220.44326,N,00448.53212,E,0.027,,141119,,,A,V*14
339.641 $GNRMC,121013.15,A,5220.44326,N,00448.53212,E,0.019,,141119,,,A,V*18
339.7411 $GNRMC,121013.25,A,5220.44326,N,00448.53212,E,0.023,,141119,,,A,V*12
339.8428 $GNRMC,121013.35,A,5220.44326,N,00448.53212,E,0.026,,141119,,,A,V*16
339.9422 $GNRMC,121013.45,A,5220.44326,N,00448.53212,E,0.024,,141119,,,A,V*13
340.0429 $GNRMC,121013.55,A,5220.44326,N,00448.53212,E,0.021,,141119,,,A,V*17
340.1428 $GNRMC,121013.65,A,5220.44326,N,00448.53212,E,0.055,,141119,,,A,V*17
340.2421 $GNRMC,121013.75,A,5220.44326,N,00448.53212,E,0.026,,141119,,,A,V*12
340.3429 $GNRMC,121013.85,A,5220.44326,N,00448.53213,E,0.006,,141119,,,A,V*1E
340.4489 $GNRMC,121013.95,A,5220.44326,N,00448.53213,E,0.018,,141119,,,A,V*10
340.5511 $GNRMC,121014.05,A,5220.44326,N,00448.53213,E,0.021,,141119,,,A,V*14
340.6411 $GNRMC,121014.15,A,5220.44327,N,00448.53213,E,0.014,,141119,,,A,V*12
340.7433 $GNRMC,121014.25,A,5220.44327,N,00448.53213,E,0.019,,141119,,,A,V*1C
340.8427 $GNRMC,121014.35,A,5220.44327,N,00448.53213,E,0.031,,141119,,,A,V*17
340.9429 $GNRMC,121014.45,A,5220.44327,N,00448.53213,E,0.025,,141119,,,A,V*15
341.0428 $GNRMC,121014.55,A,5220.44327,N,00448.53213,E,0.009,,141119,,,A,V*1A
341.1422 $GNRMC,121014.65,A,5220.44327,N,00448.53213,E,0.062,,141119,,,A,V*14
341.2423 $GNRMC,121014.75,A,5220.44327,N,00448.53213,E,0.063,,141119,,,A,V*14
341.3427 $GNRMC,121014.85,A,5220.44327,N,00448.53213,E,0.010,,141119,,,A,V*1F
341.4457 $GNRMC,121014.95,A,5220.44327,N,00448.53213,E,0.005,,141119,,,A,V*1A
341.5476 $GNRMC,121015.05,A,5220.44327,N,00448.53213,E,0.013,,141119,,,A,V*15
341.6429 $GNRMC,121015.15,A,5220.44327,N,00448.53213,E,0.010,,141119,,,A,V*17
341.7442 $GNRMC,121015.25,A,5220.44327,N,00448.53213,E,0.027,,141119,,,A,V*10
341.844 $GNRMC,121015.35,A,5220.44327,N,00448.53214,E,0.039,,141119,,,A,V*19
341.9427 $GNRMC,121015.45,A,5220.44327,N,00448.53214,E,0.029,,141119,,,A,V*1F
342.042 $GNRMC,121015.55,A,5220.44327,N,00448.53214,E,0.015,,141119,,,A,V*11
342.1429 $GNRMC,121015.65,A,5220.44327,N,00448.53214,E,0.020,,141119,,,A,V*14
342.2423 $GNRMC,121015.75,A,5220.44327,N,00448.53214,E,0.012,,141119,,,A,V*14
342.34 $GNRMC,121015.85,A,5220.44327,N,00448.53214,E,0.035,,141119,,,A,V*1E
342.4458 $GNRMC,121015.95,A,5220.44328,N,00448.53214,E,0.009,,141119,,,A,V*1F
342.5552 $GNRMC,121016.05,A,5220.44328,N,00448.53214,E,0.041,,141119,,,A,V*19
342.6421 $GNRMC,121016.15,A,5220.44328,N,00448.53214,E,0.014,,141119,,,A,V*18
342.7428 $GNRMC,121016.25,A,5220.44328,N,00448.53214,E,0.025,,141119,,,A,V*19
342.8427 $GNRMC,121016.35,A,5220.44328,N,00448.53214,E,0.059,,141119,,,A,V*13
342.942 $GNRMC,121016.45,A,5220.44328,N,00448.53214,E,0.014,,141119,,,A,V*1D
343.0423 $GNRMC,121016.55,A,5220.44328,N,00448.53214,E,0.019,,141119,,,A,V*11
343.1429 $GNRMC,121016.65,A,5220.44328,N,00448.53214,E,0.018,,141119,,,A,V*13
343.2402 $GNRMC,121016.75,A,5220.44328,N,00448.53214,E,0.027,,141119,,,A,V*1E
343.3401 $GNRMC,121016.85,A,5220.44328,N,00448.53215,E,0.034,,141119,,,A,V*12
343.4486 $GNRMC,121016.95,A,5220.44328,N,00448.53215,E,0.016,,141119,,,A,V*13
343.5479 $GNRMC,121017.05,A,5220.44328,N,00448.53215,E,0.034,,141119,,,A,V*1B
343.6429 $GNRMC,121017.15,A,5220.44328,N,00448.53215,E,0.054,,141119,,,A,V*1C
343.743 $GNRMC,121017.25,A,5220.44328,N,00448.53215,E,0.016,,141119,,,A,V*19
343.8427 $GNRMC,121017.35,A,5220.44328,N,00448.53215,E,0.016,,141119,,,A,V*18
343.9431 $GNRMC,121017.45,A,5220.44328,N,00448.53215,E,0.023,,141119,,,A,V*19
344.0441 $GNRMC,121017.55,A,5220.44328,N,00448.53215,E,0.026,,141119,,,A,V*1D
344.1411 $GNRMC,121017.65,A,5220.44329,N,00448.53215,E,0.017,,141119,,,A,V*1D
344.2409 $GNRMC,121017.75,A,5220.44329,N,00448.53215,E,0.033,,141119,,,A,V*1A
344.343 $GNRMC,121017.85,A,5220.44329,N,00448.53215,E,0.030,,141119,,,A,V*16
344.4482 $GNRMC,121017.95,A,5220.44329,N,00448.53215,E,0.022,,141119,,,A,V*14
344.5532 $GNRMC,121018.05,A,5220.44329,N,00448.53215,E,0.018,,141119,,,A,V*1B
344.6428 $GNRMC,121018.15,A,5220.44329,N,00448.53215,E,0.041,,141119,,,A,V*16
344.7421 $GNRMC,121018.25,A,5220.44329,N,00448.53216,E,0.063,,141119,,,A,V*16
344.8423 $GNRMC,121018.35,A,5220.44329,N,00448.53216,E,0.018,,141119,,,A,V*1B
344.9427 $GNRMC,121018.45,A,5220.44329,N,00448.53216,E,0.012,,141119,,,A,V*16
345.0403 $GNRMC,121018.55,A,5220.44329,N,00448.53216,E,0.024,,141119,,,A,V*12
345.1409 $GNRMC,121018.65,A,5220.44329,N,00448.53216,E,0.031,,141119,,,A,V*15
345.2422 $GNRMC,121018.75,A,5220.44329,N,00448.53216,E,0.034,,141119,,,A,V*11
345.3413 $GNRMC,121018.85,A,5220.44329,N,00448.53216,E,0.037,,141119,,,A,V*1D
345.4477 $GNRMC,121018.95,A,5220.44329,N,00448.53216,E,0.027,,141119,,,A,V*1D
345.5489 $GNRMC,121019.05,A,5220.44329,N,00448.53216,E,0.044,,141119,,,A,V*10
345.6421 $GNRMC,121019.15,A,5220.44329,N,00448.53216,E,0.021,,141119,,,A,V*12
345.7428 $GNRMC,121019.25,A,5220.44329,N,00448.53216,E,0.034,,141119,,,A,V*15
345.8427 $GNRMC,121019.35,A,5220.44329,N,00448.53216,E,0.034,,141119,,,A,V*14
345.9402 $GNRMC,121019.45,A,5220.44330,N,00448.53216,E,0.009,,141119,,,A,V*15
346.0403 $GNRMC,121019.55,A,5220.44330,N,00448.53216,E,0.066,,141119,,,A,V*1D
346.1427 $GNRMC,121019.65,A,5220.44330,N,00448.53216,E,0.037,,141119,,,A,V*1A
346.2421 $GNRMC,121019.75,A,5220.44330,N,00448.53216,E,0.054,,141119,,,A,V*1E
346.3423 $GNRMC,121019.85,A,5220.44330,N,00448.53216,E,0.057,,141119,,,A,V*12
346.4488 $GNRMC,121019.95,A,5220.44330,N,00448.53216,E,0.035,,141119,,,A,V*17
346.5519 $GNRMC,121020.05,A,5220.44330,N,00448.53216,E,0.046,,141119,,,A,V*10
346.6452 $GNRMC,121020.15,A,5220.44330,N,00448.53216,E,0.028,,141119,,,A,V*19
346.7432 $GNRMC,121020.25,A,5220.44330,N,00448.53216,E,0.019,,141119,,,A,V*18
346.8412 $GNRMC,121020.35,A,5220.44330,N,00448.53216,E,0.034,,141119,,,A,V*16
346.9403 $GNRMC,121020.45,A,5220.44331,N,00448.53216,E,0.006,,141119,,,A,V*11
347.0427 $GNRMC,121020.55,A,5220.44331,N,00448.53216,E,0.032,,141119,,,A,V*17
347.1422 $GNRMC,121020.65,A,5220.44331,N,00448.53216,E,0.022,,141119,,,A,V*15
347.2422 $GNRMC,121020.75,A,5220.44331,N,00448.53216,E,0.011,,141119,,,A,V*14
347.3423 $GNRMC,121020.85,A,5220.44331,N,00448.53216,E,0.019,,141119,,,A,V*13
347.4477 $GNRMC,121020.95,A,5220.44331,N,00448.53217,E,0.018,,141119,,,A,V*12
347.5483 $GNRMC,121021.05,A,5220.44331,N,00448.53217,E,0.034,,141119,,,A,V*14
347.6441 $GNRMC,121021.15,A,5220.44331,N,00448.53217,E,0.063,,141119,,,A,V*17
347.742 $GNRMC,121021.25,A,5220.44331,N,00448.53217,E,0.036,,141119,,,A,V*14
347.8419 $GNRMC,121021.35,A,5220.44331,N,00448.53217,E,0.019,,141119,,,A,V*18
347.945 $GNRMC,121021.45,A,5220.44331,N,00448.53217,E,0.021,,141119,,,A,V*14
348.042 $GNRMC,121021.55,A,5220.44332,N,00448.53217,E,0.028,,141119,,,A,V*1F
348.1422 $GNRMC,121021.65,A,5220.44332,N,00448.53217,E,0.055,,141119,,,A,V*16
348.2422 $GNRMC,121021.75,A,5220.44332,N,00448.53217,E,0.005,,141119,,,A,V*12
348.3418 $GNRMC,121021.85,A,5220.44332,N,00448.53217,E,0.016,,141119,,,A,V*1F
348.4478 $GNRMC,121021.95,A,5220.44332,N,00448.53217,E,0.034,,141119,,,A,V*1E
348.5558 $GNRMC,121022.05,A,5220.44332,N,00448.53217,E,0.031,,141119,,,A,V*11
348.6421 $GNRMC,121022.15,A,5220.44332,N,00448.53217,E,0.026,,141119,,,A,V*16
348.742 $GNRMC,121022.25,A,5220.44332,N,00448.53217,E,0.034,,141119,,,A,V*16
348.8451 $GNRMC,121022.35,A,5220.44332,N,00448.53217,E,0.016,,141119,,,A,V*17
348.9421 $GNRMC,121022.45,A,5220.44332,N,00448.53217,E,0.018,,141119,,,A,V*1E
349.043 $GNRMC,121022.55,A,5220.44332,N,00448.53217,E,0.033,,141119,,,A,V*16
349.1433 $GNRMC,121022.65,A,5220.44333,N,00448.53217,E,0.051,,141119,,,A,V*10
349.242 $GNRMC,121022.75,A,5220.44333,N,00448.53217,E,0.045,,141119,,,A,V*14
349.3421 $GNRMC,121022.85,A,5220.44333,N,00448.53217,E,0.046,,141119,,,A,V*18
349.4487 $GNRMC,121022.95,A,5220.44333,N,00448.53217,E,0.047,,141119,,,A,V*18
349.546 $GNRMC,121023.05,A,5220.44333,N,00448.53217,E,0.032,,141119,,,A,V*12
349.6416 $GNRMC,121023.15,A,5220.44333,N,00448.53217,E,0.025,,141119,,,A,V*15
349.7432 $GNRMC,121023.25,A,5220.44333,N,00448.53217,E,0.013,,141119,,,A,V*13
349.8421 $GNRMC,121023.35,A,5220.44333,N,00448.53217,E,0.056,,141119,,,A,V*13
349.9428 $GNRMC,121023.45,A,5220.44333,N,00448.53217,E,0.007,,141119,,,A,V*10
350.0429 $GNRMC,121023.55,A,5220.44333,N,00448.53217,E,0.055,,141119,,,A,V*16
350.1423 $GNRMC,121023.65,A,5220.44334,N,00448.53217,E,0.051,,141119,,,A,V*16
350.2428 $GNRMC,121023.75,A,5220.44334,N,00448.53217,E,0.031,,141119,,,A,V*11
350.3427 $GNRMC,121023.85,A,5220.44334,N,00448.53217,E,0.040,,141119,,,A,V*18
350.4459 $GNRMC,121023.95,A,5220.44334,N,00448.53217,E,0.005,,141119,,,A,V*18
350.5521 $GNRMC,121024.05,A,5220.44334,N,00448.53217,E,0.041,,141119,,,A,V*16
350.6426 $GNRMC,121024.15,A,5220.44334,N,00448.53217,E,0.045,,141119,,,A,V*13
350.7421 $GNRMC,121024.25,A,5220.44334,N,00448.53217,E,0.011,,141119,,,A,V*11
350.8421 $GNRMC,121024.35,A,5220.44334,N,00448.53217,E,0.024,,141119,,,A,V*16
350.9427 $GNRMC,121024.45,A,5220.44334,N,00448.53217,E,0.030,,141119,,,A,V*14
351.042 $GNRMC,121024.55,A,5220.44334,N,00448.53217,E,0.019,,141119,,,A,V*1E
351.1429 $GNRMC,121024.65,A,5220.44335,N,00448.53217,E,0.022,,141119,,,A,V*14
351.2422 $GNRMC,121024.75,A,5220.44335,N,00448.53217,E,0.034,,141119,,,A,V*12
351.3399 $GNRMC,121024.85,A,5220.44335,N,00448.53217,E,0.027,,141119,,,A,V*1F
351.4457 $GNRMC,121024.95,A,5220.44335,N,00448.53217,E,0.019,,141119,,,A,V*13
351.5489 $GNRMC,121025.05,A,5220.44335,N,00448.53218,E,0.036,,141119,,,A,V*19
351.6422 $GNRMC,121025.15,A,5220.44335,N,00448.53218,E,0.056,,141119,,,A,V*1E
351.7428 $GNRMC,121025.25,A,5220.44335,N,00448.53218,E,0.023,,141119,,,A,V*1F
351.8427 $GNRMC,121025.35,A,5220.44335,N,00448.53218,E,0.042,,141119,,,A,V*19
351.942 $GNRMC,121025.45,A,5220.44335,N,00448.53218,E,0.031,,141119,,,A,V*1A
352.0423 $GNRMC,121025.55,A,5220.44335,N,00448.53218,E,0.014,,141119,,,A,V*1C
352.1428 $GNRMC,121025.65,A,5220.44335,N,00448.53218,E,0.026,,141119,,,A,V*1E
352.2411 $GNRMC,121025.75,A,5220.44336,N,00448.53218,E,0.035,,141119,,,A,V*1E
352.3402 $GNRMC,121025.85,A,5220.44336,N,00448.53218,E,0.021,,141119,,,A,V*14
352.4487 $GNRMC,121025.95,A,5220.44336,N,00448.53218,E,0.011,,141119,,,A,V*16
352.5543 $GNRMC,121026.05,A,5220.44336,N,00448.53218,E,0.018,,141119,,,A,V*15
352.6429 $GNRMC,121026.15,A,5220.44336,N,00448.53218,E,0.030,,141119,,,A,V*1E
352.7432 $GNRMC,121026.25,A,5220.44336,N,00448.53218,E,0.039,,141119,,,A,V*14
352.8423 $GNRMC,121026.35,A,5220.44336,N,00448.53218,E,0.009,,141119,,,A,V*16
352.9423 $GNRMC,121026.45,A,5220.44336,N,00448.53218,E,0.039,,141119,,,A,V*12
353.0427 $GNRMC,121026.55,A,5220.44337,N,00448.53218,E,0.003,,141119,,,A,V*1B
353.1418 $GNRMC,121026.65,A,5220.44337,N,00448.53218,E,0.015,,141119,,,A,V*1F
353.2401 $GNRMC,121026.75,A,5220.44337,N,00448.53218,E,0.041,,141119,,,A,V*1F
353.3423 $GNRMC,121026.85,A,5220.44337,N,00448.53218,E,0.051,,141119,,,A,V*11
353.4477 $GNRMC,121026.95,A,5220.44337,N,00448.53218,E,0.008,,141119,,,A,V*1C
353.5482 $GNRMC,121027.05,A,5220.44337,N,00448.53218,E,0.049,,141119,,,A,V*11
353.6429 $GNRMC,121027.15,A,5220.44337,N,00448.53218,E,0.014,,141119,,,A,V*18
353.7422 $GNRMC,121027.25,A,5220.44337,N,00448.53218,E,0.020,,141119,,,A,V*1C
353.8423 $GNRMC,121027.35,A,5220.44338,N,00448.53218,E,0.014,,141119,,,A,V*15
353.9427 $GNRMC,121027.45,A,5220.44338,N,00448.53218,E,0.012,,141119,,,A,V*14
354.041 $GNRMC,121027.55,A,5220.44338,N,00448.53218,E,0.010,,141119,,,A,V*17
354.1408 $GNRMC,121027.65,A,5220.44338,N,00448.53218,E,0.016,,141119,,,A,V*12
354.2426 $GNRMC,121027.75,A,5220.44338,N,00448.53218,E,0.034,,141119,,,A,V*13
354.3419 $GNRMC,121027.85,A,5220.44338,N,00448.53218,E,0.054,,141119,,,A,V*1A
354.4479 $GNRMC,121027.95,A,5220.44338,N,00448.53218,E,0.018,,141119,,,A,V*13
354.5541 $GNRMC,121028.05,A,5220.44338,N,00448.53218,E,0.027,,141119,,,A,V*19
354.6421 $GNRMC,121028.15,A,5220.44338,N,00448.53218,E,0.021,,141119,,,A,V*1E
354.7428 $GNRMC,121028.25,A,5220.44338,N,00448.53218,E,0.039,,141119,,,A,V*14
354.8427 $GNRMC,121028.35,A,5220.44339,N,00448.53218,E,0.033,,141119,,,A,V*1E
354.9403 $GNRMC,121028.45,A,5220.44339,N,00448.53218,E,0.015,,141119,,,A,V*1D
355.0402 $GNRMC,121028.55,A,5220.44339,N,00448.53218,E,0.021,,141119,,,A,V*1B
355.1431 $GNRMC,121028.65,A,5220.44339,N,00448.53218,E,0.012,,141119,,,A,V*18
355.242 $GNRMC,121028.75,A,5220.44339,N,00448.53218,E,0.011,,141119,,,A,V*1A
355.3422 $GNRMC,121028.85,A,5220.44339,N,00448.53217,E,0.046,,141119,,,A,V*18
355.4489 $GNRMC,121028.95,A,5220.44339,N,00448.53217,E,0.033,,141119,,,A,V*1B
355.548 $GNRMC,121029.05,A,5220.44339,N,00448.53217,E,0.033,,141119,,,A,V*13
355.643 $GNRMC,121029.15,A,5220.44339,N,00448.53217,E,0.020,,141119,,,A,V*10
355.7431 $GNRMC,121029.25,A,5220.44339,N,00448.53217,E,0.019,,141119,,,A,V*19
355.8412 $GNRMC,121029.35,A,5220.44339,N,00448.53217,E,0.023,,141119,,,A,V*11
355.9411 $GNRMC,121029.45,A,5220.44339,N,00448.53217,E,0.050,,141119,,,A,V*12
356.043 $GNRMC,121029.55,A,5220.44339,N,00448.53217,E,0.012,,141119,,,A,V*15
356.1423 $GNRMC,121029.65,A,5220.44339,N,00448.53217,E,0.044,,141119,,,A,V*15
356.2429 $GNRMC,121029.75,A,5220.44339,N,00448.53217,E,0.012,,141119,,,A,V*17
356.3429 $GNRMC,121029.85,A,5220.44339,N,00448.53217,E,0.037,,141119,,,A,V*1F
356.4481 $GNRMC,121029.95,A,5220.44340,N,00448.53217,E,0.013,,141119,,,A,V*16
356.5549 $GNRMC,121030.05,A,5220.44340,N,00448.53217,E,0.028,,141119,,,A,V*1F
356.6442 $GNRMC,121030.15,A,5220.44340,N,00448.53217,E,0.020,,141119,,,A,V*16
356.7413 $GNRMC,121030.25,A,5220.44340,N,00448.53217,E,0.030,,141119,,,A,V*14
356.8411 $GNRMC,121030.35,A,5220.44340,N,00448.53216,E,0.049,,141119,,,A,V*1A
356.943 $GNRMC,121030.45,A,5220.44340,N,00448.53216,E,0.029,,141119,,,A,V*1B
357.0423 $GNRMC,121030.55,A,5220.44340,N,00448.53216,E,0.027,,141119,,,A,V*14
357.1449 $GNRMC,121030.65,A,5220.44340,N,00448.53216,E,0.028,,141119,,,A,V*18
357.2427 $GNRMC,121030.75,A,5220.44340,N,00448.53216,E,0.018,,141119,,,A,V*1A
357.3419 $GNRMC,121030.85,A,5220.44340,N,00448.53216,E,0.048,,141119,,,A,V*10
357.448 $GNRMC,121030.95,A,5220.44340,N,00448.53216,E,0.030,,141119,,,A,V*1E
357.5481 $GNRMC,121031.05,A,5220.44340,N,00448.53216,E,0.044,,141119,,,A,V*15
357.6418 $GNRMC,121031.15,A,5220.44340,N,00448.53216,E,0.025,,141119,,,A,V*13
357.7417 $GNRMC,121031.25,A,5220.44340,N,00448.53216,E,0.011,,141119,,,A,V*17
357.843 $GNRMC,121031.35,A,5220.44341,N,00448.53216,E,0.023,,141119,,,A,V*16
357.9422 $GNRMC,121031.45,A,5220.44341,N,00448.53216,E,0.007,,141119,,,A,V*17
358.0428 $GNRMC,121031.55,A,5220.44341,N,00448.53216,E,0.039,,141119,,,A,V*1B
358.1428 $GNRMC,121031.65,A,5220.44341,N,00448.53216,E,0.026,,141119,,,A,V*16
358.2421 $GNRMC,121031.75,A,5220.44341,N,00448.53216,E,0.012,,141119,,,A,V*10
358.3427 $GNRMC,121031.85,A,5220.44341,N,00448.53216,E,0.006,,141119,,,A,V*1A
358.4489 $GNRMC,121031.95,A,5220.44341,N,00448.53215,E,0.053,,141119,,,A,V*18
358.5493 $GNRMC,121032.05,A,5220.44341,N,00448.53215,E,0.022,,141119,,,A,V*14
358.6443 $GNRMC,121032.15,A,5220.44342,N,00448.53215,E,0.037,,141119,,,A,V*12
358.746 $GNRMC,121032.25,A,5220.44342,N,00448.53216,E,0.033,,141119,,,A,V*16
358.843 $GNRMC,121032.35,A,5220.44342,N,00448.53216,E,0.020,,141119,,,A,V*15
358.9431 $GNRMC,121032.45,A,5220.44342,N,00448.53216,E,0.025,,141119,,,A,V*17
359.043 $GNRMC,121032.55,A,5220.44342,N,00448.53215,E,0.015,,141119,,,A,V*16
359.1429 $GNRMC,121032.65,A,5220.44342,N,00448.53216,E,0.017,,141119,,,A,V*14
359.2428 $GNRMC,121032.75,A,5220.44342,N,00448.53216,E,0.031,,141119,,,A,V*11
359.3428 $GNRMC,121032.85,A,5220.44342,N,00448.53216,E,0.009,,141119,,,A,V*15
359.4459 $GNRMC,121032.95,A,5220.44342,N,00448.53216,E,0.022,,141119,,,A,V*1D
359.5479 $GNRMC,121033.05,A,5220.44342,N,00448.53216,E,0.021,,141119,,,A,V*16
359.6449 $GNRMC,121033.15,A,5220.44342,N,00448.53215,E,0.031,,141119,,,A,V*15
359.7442 $GNRMC,121033.25,A,5220.44342,N,00448.53216,E,0.020,,141119,,,A,V*15
359.8429 $GNRMC,121033.35,A,5220.44342,N,00448.53215,E,0.013,,141119,,,A,V*17
359.9432 $GNRMC,121033.45,A,5220.44342,N,00448.53215,E,0.014,,141119,,,A,V*17
360.0427 $GNRMC,121033.55,A,5220.44343,N,00448.53215,E,0.049,,141119,,,A,V*1F
360.1429 $GNRMC,121033.65,A,5220.44343,N,00448.53215,E,0.011,,141119,,,A,V*11
360.2426 $GNRMC,121033.75,A,5220.44343,N,00448.53215,E,0.036,,141119,,,A,V*15
360.3402 $GNRMC,121033.85,A,5220.44343,N,00448.53215,E,0.028,,141119,,,A,V*15
360.4459 $GNRMC,121033.95,A,5220.44343,N,00448.53215,E,0.021,,141119,,,A,V*1D
360.5543 $GNRMC,121034.05,A,5220.44343,N,00448.53215,E,0.040,,141119,,,A,V*14
360.6447 $GNRMC,121034.15,A,5220.44343,N,00448.53215,E,0.014,,141119,,,A,V*14
360.746 $GNRMC,121034.25,A,5220.44343,N,00448.53215,E,0.029,,141119,,,A,V*19
360.8458 $GNRMC,121034.35,A,5220.44343,N,00448.53215,E,0.031,,141119,,,A,V*11
360.942 $GNRMC,121034.45,A,5220.44343,N,00448.53215,E,0.034,,141119,,,A,V*13
361.0422 $GNRMC,121034.55,A,5220.44343,N,00448.53215,E,0.026,,141119,,,A,V*11
361.145 $GNRMC,121034.65,A,5220.44343,N,00448.53215,E,0.023,,141119,,,A,V*17
361.2401 $GNRMC,121034.75,A,5220.44343,N,00448.53215,E,0.015,,141119,,,A,V*13
361.3403 $GNRMC,121034.85,A,5220.44343,N,00448.53215,E,0.018,,141119,,,A,V*11
361.4488 $GNRMC,121034.95,A,5220.44343,N,00448.53215,E,0.014,,141119,,,A,V*1C
361.5471 $GNRMC,121035.05,A,5220.44343,N,00448.53215,E,0.024,,141119,,,A,V*17
361.6442 $GNRMC,121035.15,A,5220.44344,N,00448.53215,E,0.030,,141119,,,A,V*14
361.7451 $GNRMC,121035.25,A,5220.44344,N,00448.53215,E,0.034,,141119,,,A,V*13
361.8423 $GNRMC,121035.35,A,5220.44344,N,00448.53215,E,0.018,,141119,,,A,V*1C
361.9431 $GNRMC,121035.45,A,5220.44344,N,00448.53215,E,0.044,,141119,,,A,V*12
362.0431 $GNRMC,121035.55,A,5220.44344,N,00448.53215,E,0.030,,141119,,,A,V*10
362.1422 $GNRMC,121035.65,A,5220.44344,N,00448.53215,E,0.024,,141119,,,A,V*16
362.2409 $GNRMC,121035.75,A,5220.44344,N,00448.53215,E,0.042,,141119,,,A,V*17
362.3431 $GNRMC,121035.85,A,5220.44344,N,00448.53215,E,0.020,,141119,,,A,V*1C
362.4487 $GNRMC,121035.95,A,5220.44344,N,00448.53215,E,0.028,,141119,,,A,V*15
362.5527 $GNRMC,121036.05,A,5220.44344,N,00448.53215,E,0.014,,141119,,,A,V*10
362.6431 $GNRMC,121036.15,A,5220.44344,N,00448.53215,E,0.033,,141119,,,A,V*14
362.7423 $GNRMC,121036.25,A,5220.44344,N,00448.53215,E,0.020,,141119,,,A,V*15
362.8427 $GNRMC,121036.35,A,5220.44344,N,00448.53215,E,0.006,,141119,,,A,V*10
362.9428 $GNRMC,121036.45,A,5220.44344,N,00448.53215,E,0.022,,141119,,,A,V*11
363.041 $GNRMC,121036.55,A,5220.44344,N,00448.53215,E,0.010,,141119,,,A,V*11
363.1411 $GNRMC,121036.65,A,5220.44344,N,00448.53215,E,0.026,,141119,,,A,V*17
363.2423 $GNRMC,121036.75,A,5220.44344,N,00448.53215,E,0.007,,141119,,,A,V*15
363.3419 $GNRMC,121036.85,A,5220.44344,N,00448.53215,E,0.050,,141119,,,A,V*18
363.4478 $GNRMC,121036.95,A,5220.44344,N,00448.53215,E,0.027,,141119,,,A,V*19
363.5482 $GNRMC,121037.05,A,5220.44344,N,00448.53215,E,0.015,,141119,,,A,V*10
363.6429 $GNRMC,121037.15,A,5220.44344,N,00448.53215,E,0.025,,141119,,,A,V*12
363.743 $GNRMC,121037.25,A,5220.44344,N,00448.53215,E,0.052,,141119,,,A,V*11
363.843 $GNRMC,121037.35,A,5220.44344,N,00448.53215,E,0.022,,141119,,,A,V*17
363.9413 $GNRMC,121037.45,A,5220.44344,N,00448.53215,E,0.033,,141119,,,A,V*10
364.041 $GNRMC,121037.55,A,5220.44344,N,00448.53214,E,0.030,,141119,,,A,V*13
364.147 $GNRMC,121037.65,A,5220.44345,N,00448.53215,E,0.161,,141119,,,A,V*15
364.245 $GNRMC,121037.75,A,5220.44344,N,00448.53215,E,0.031,,141119,,,A,V*11
364.3428 $GNRMC,121037.85,A,5220.44345,N,00448.53215,E,0.055,,141119,,,A,V*1D
364.4489 $GNRMC,121037.95,A,5220.44345,N,00448.53215,E,0.029,,141119,,,A,V*17
364.5519 $GNRMC,121038.05,A,5220.44345,N,00448.53214,E,0.042,,141119,,,A,V*1D
364.6453 $GNRMC,121038.15,A,5220.44345,N,00448.53214,E,0.001,,141119,,,A,V*1B
364.746 $GNRMC,121038.25,A,5220.44345,N,00448.53214,E,0.009,,141119,,,A,V*10
364.8419 $GNRMC,121038.35,A,5220.44345,N,00448.53214,E,0.005,,141119,,,A,V*1D
364.9412 $GNRMC,121038.45,A,5220.44345,N,00448.53214,E,0.035,,141119,,,A,V*19
365.0428 $GNRMC,121038.55,A,5220.44345,N,00448.53214,E,0.047,,141119,,,A,V*1D
365.1431 $GNRMC,121038.65,A,5220.44345,N,00448.53214,E,0.021,,141119,,,A,V*1E
365.2428 $GNRMC,121038.75,A,5220.44345,N,00448.53214,E,0.072,,141119,,,A,V*19
365.3428 $GNRMC,121038.85,A,5220.44345,N,00448.53214,E,0.021,,141119,,,A,V*10
365.4479 $GNRMC,121038.95,A,5220.44345,N,00448.53214,E,0.045,,141119,,,A,V*13
365.5469 $GNRMC,121039.05,A,5220.44345,N,00448.53214,E,0.034,,141119,,,A,V*1D
365.6432 $GNRMC,121039.15,A,5220.44345,N,00448.53214,E,0.034,,141119,,,A,V*1C
365.7416 $GNRMC,121039.25,A,5220.44345,N,00448.53214,E,0.023,,141119,,,A,V*19
365.841 $GNRMC,121039.35,A,5220.44345,N,00448.53213,E,0.020,,141119,,,A,V*1C
365.943 $GNRMC,121039.45,A,5220.44345,N,00448.53213,E,0.020,,141119,,,A,V*1B
366.045 $GNRMC,121039.55,A,5220.44346,N,00448.53213,E,0.033,,141119,,,A,V*1B
366.1459 $GNRMC,121039.65,A,5220.44346,N,00448.53213,E,0.048,,141119,,,A,V*14
366.2453 $GNRMC,121039.75,A,5220.44346,N,00448.53213,E,0.021,,141119,,,A,V*1A
366.342 $GNRMC,121039.85,A,5220.44346,N,00448.53213,E,0.042,,141119,,,A,V*10
366.448 $GNRMC,121039.95,A,5220.44346,N,00448.53213,E,0.057,,141119,,,A,V*15
366.5513 $GNRMC,121040.05,A,5220.44346,N,00448.53213,E,0.038,,141119,,,A,V*1B
366.6418 $GNRMC,121040.15,A,5220.44346,N,00448.53213,E,0.013,,141119,,,A,V*13
366.7417 $GNRMC,121040.25,A,5220.44346,N,00448.53213,E,0.018,,141119,,,A,V*1B
366.8432 $GNRMC,121040.35,A,5220.44346,N,00448.53213,E,0.011,,141119,,,A,V*13
366.9429 $GNRMC,121040.45,A,5220.44346,N,00448.53213,E,0.017,,141119,,,A,V*12
367.043 $GNRMC,121040.55,A,5220.44346,N,00448.53213,E,0.027,,141119,,,A,V*10
367.1428 $GNRMC,121040.65,A,5220.44346,N,00448.53213,E,0.014,,141119,,,A,V*13
367.2422 $GNRMC,121040.75,A,5220.44346,N,00448.53213,E,0.026,,141119,,,A,V*13
367.3427 $GNRMC,121040.85,A,5220.44346,N,00448.53213,E,0.018,,141119,,,A,V*11
367.4489 $GNRMC,121040.95,A,5220.44346,N,00448.53213,E,0.017,,141119,,,A,V*1F
367.5448 $GNRMC,121041.05,A,5220.44346,N,00448.53213,E,0.015,,141119,,,A,V*15
367.6418 $GNRMC,121041.15,A,5220.44346,N,00448.53213,E,0.023,,141119,,,A,V*11
367.7431 $GNRMC,121041.25,A,5220.44346,N,00448.53213,E,0.031,,141119,,,A,V*11
367.8423 $GNRMC,121041.35,A,5220.44346,N,00448.53213,E,0.005,,141119,,,A,V*17
367.9427 $GNRMC,121041.45,A,5220.44346,N,00448.53213,E,0.032,,141119,,,A,V*14
368.0428 $GNRMC,121041.55,A,5220.44346,N,00448.53212,E,0.012,,141119,,,A,V*16
368.1423 $GNRMC,121041.65,A,5220.44346,N,00448.53212,E,0.036,,141119,,,A,V*13
368.242 $GNRMC,121041.75,A,5220.44346,N,00448.53212,E,0.035,,141119,,,A,V*11
368.3423 $GNRMC,121041.85,A,5220.44346,N,00448.53212,E,0.031,,141119,,,A,V*1A
368.4457 $GNRMC,121041.95,A,5220.44346,N,00448.53212,E,0.029,,141119,,,A,V*12
368.5511 $GNRMC,121042.05,A,5220.44346,N,00448.53212,E,0.003,,141119,,,A,V*10
368.6431 $GNRMC,121042.15,A,5220.44347,N,00448.53212,E,0.050,,141119,,,A,V*16
368.7427 $GNRMC,121042.25,A,5220.44347,N,00448.53212,E,0.052,,141119,,,A,V*17
368.8428 $GNRMC,121042.35,A,5220.44347,N,00448.53212,E,0.025,,141119,,,A,V*16
368.9427 $GNRMC,121042.45,A,5220.44347,N,00448.53211,E,0.028,,141119,,,A,V*1F
369.042 $GNRMC,121042.55,A,5220.44347,N,00448.53211,E,0.020,,141119,,,A,V*16
369.1429 $GNRMC,121042.65,A,5220.44347,N,00448.53211,E,0.018,,141119,,,A,V*1E
369.2423 $GNRMC,121042.75,A,5220.44347,N,00448.53211,E,0.030,,141119,,,A,V*15
369.3401 $GNRMC,121042.85,A,5220.44347,N,00448.53211,E,0.029,,141119,,,A,V*12
369.446 $GNRMC,121042.95,A,5220.44347,N,00448.53211,E,0.037,,141119,,,A,V*1C
369.5486 $GNRMC,121043.05,A,5220.44347,N,00448.53211,E,0.029,,141119,,,A,V*1B
369.644 $GNRMC,121043.15,A,5220.44347,N,00448.53211,E,0.030,,141119,,,A,V*12
369.7451 $GNRMC,121043.25,A,5220.44347,N,00448.53211,E,0.011,,141119,,,A,V*12
369.8451 $GNRMC,121043.35,A,5220.44347,N,00448.53211,E,0.011,,141119,,,A,V*13
369.943 $GNRMC,121043.45,A,5220.44347,N,00448.53211,E,0.014,,141119,,,A,V*11
370.0429 $GNRMC,121043.55,A,5220.44347,N,00448.53211,E,0.029,,141119,,,A,V*1E
370.144 $GNRMC,121043.65,A,5220.44347,N,00448.53211,E,0.019,,141119,,,A,V*1E
370.2402 $GNRMC,121043.75,A,5220.44347,N,00448.53211,E,0.030,,141119,,,A,V*14
370.3402 $GNRMC,121043.85,A,5220.44347,N,00448.53211,E,0.015,,141119,,,A,V*1C
370.4488 $GNRMC,121043.95,A,5220.44347,N,00448.53211,E,0.008,,141119,,,A,V*11
370.5551 $GNRMC,121044.05,A,5220.44347,N,00448.53210,E,0.023,,141119,,,A,V*17
370.647 $GNRMC,121044.15,A,5220.44347,N,00448.53210,E,0.037,,141119,,,A,V*13
370.746 $GNRMC,121044.25,A,5220.44347,N,00448.53210,E,0.036,,141119,,,A,V*11
370.8452 $GNRMC,121044.35,A,5220.44347,N,00448.53210,E,0.047,,141119,,,A,V*16
370.9433 $GNRMC,121044.45,A,5220.44347,N,00448.53210,E,0.045,,141119,,,A,V*13
371.043 $GNRMC,121044.55,A,5220.44347,N,00448.53210,E,0.045,,141119,,,A,V*12
371.1416 $GNRMC,121044.65,A,5220.44347,N,00448.53210,E,0.011,,141119,,,A,V*10
371.241 $GNRMC,121044.75,A,5220.44347,N,00448.53210,E,0.042,,141119,,,A,V*17
371.343 $GNRMC,121044.85,A,5220.44347,N,00448.53210,E,0.029,,141119,,,A,V*15
371.4482 $GNRMC,121044.95,A,5220.44347,N,00448.53210,E,0.011,,141119,,,A,V*1F
371.5482 $GNRMC,121045.05,A,5220.44347,N,00448.53210,E,0.018,,141119,,,A,V*1E
371.6452 $GNRMC,121045.15,A,5220.44347,N,00448.53210,E,0.021,,141119,,,A,V*15
371.7447 $GNRMC,121045.25,A,5220.44347,N,00448.53210,E,0.023,,141119,,,A,V*14
371.8442 $GNRMC,121045.35,A,5220.44347,N,00448.53210,E,0.031,,141119,,,A,V*16
371.9443 $GNRMC,121045.45,A,5220.44347,N,00448.53210,E,0.037,,141119,,,A,V*17
372.0412 $GNRMC,121045.55,A,5220.44347,N,00448.53210,E,0.049,,141119,,,A,V*1F
372.1417 $GNRMC,121045.65,A,5220.44347,N,00448.53209,E,0.010,,141119,,,A,V*18
372.2422 $GNRMC,121045.75,A,5220.44347,N,00448.53209,E,0.016,,141119,,,A,V*1F
372.3413 $GNRMC,121045.85,A,5220.44347,N,00448.53209,E,0.022,,141119,,,A,V*17
372.4477 $GNRMC,121045.95,A,5220.44347,N,00448.53209,E,0.017,,141119,,,A,V*10
372.5547 $GNRMC,121046.05,A,5220.44348,N,00448.53209,E,0.033,,141119,,,A,V*13
372.6441 $GNRMC,121046.15,A,5220.44347,N,00448.53209,E,0.051,,141119,,,A,V*19
372.7449 $GNRMC,121046.25,A,5220.44348,N,00448.53209,E,0.061,,141119,,,A,V*16
372.844 $GNRMC,121046.35,A,5220.44347,N,00448.53209,E,0.044,,141119,,,A,V*1F
372.9417 $GNRMC,121046.45,A,5220.44347,N,00448.53209,E,0.034,,141119,,,A,V*1F
373.041 $GNRMC,121046.55,A,5220.44347,N,00448.53209,E,0.025,,141119,,,A,V*1E
373.1449 $GNRMC,121046.65,A,5220.44348,N,00448.53209,E,0.020,,141119,,,A,V*17
373.2429 $GNRMC,121046.75,A,5220.44348,N,00448.53209,E,0.021,,141119,,,A,V*17
373.343 $GNRMC,121046.85,A,5220.44348,N,00448.53209,E,0.015,,141119,,,A,V*1F
373.4487 $GNRMC,121046.95,A,5220.44347,N,00448.53209,E,0.045,,141119,,,A,V*14
373.5463 $GNRMC,121047.05,A,5220.44347,N,00448.53209,E,0.001,,141119,,,A,V*1C
373.644 $GNRMC,121047.15,A,5220.44347,N,00448.53209,E,0.026,,141119,,,A,V*18
373.7433 $GNRMC,121047.25,A,5220.44347,N,00448.53209,E,0.019,,141119,,,A,V*17
373.8419 $GNRMC,121047.35,A,5220.44347,N,00448.53209,E,0.042,,141119,,,A,V*18
373.941 $GNRMC,121047.45,A,5220.44347,N,00448.53209,E,0.015,,141119,,,A,V*1D
374.0428 $GNRMC,121047.55,A,5220.44347,N,00448.53209,E,0.031,,141119,,,A,V*1A
374.1429 $GNRMC,121047.65,A,5220.44347,N,00448.53209,E,0.015,,141119,,,A,V*1F
374.2422 $GNRMC,121047.75,A,5220.44347,N,00448.53209,E,0.036,,141119,,,A,V*1F
374.3423 $GNRMC,121047.85,A,5220.44347,N,00448.53209,E,0.064,,141119,,,A,V*17
374.4478 $GNRMC,121047.95,A,5220.44347,N,00448.53208,E,0.057,,141119,,,A,V*17
374.5527 $GNRMC,121048.05,A,5220.44347,N,00448.53208,E,0.043,,141119,,,A,V*14
374.644 $GNRMC,121048.15,A,5220.44347,N,00448.53208,E,0.057,,141119,,,A,V*10
374.7413 $GNRMC,121048.25,A,5220.44347,N,00448.53208,E,0.047,,141119,,,A,V*12
374.842 $GNRMC,121048.35,A,5220.44347,N,00448.53208,E,0.016,,141119,,,A,V*17
374.9432 $GNRMC,121048.45,A,5220.44347,N,00448.53208,E,0.027,,141119,,,A,V*12
375.0421 $GNRMC,121048.55,A,5220.44347,N,00448.53208,E,0.045,,141119,,,A,V*17
375.1427 $GNRMC,121048.65,A,5220.44347,N,00448.53208,E,0.028,,141119,,,A,V*1F
375.2426 $GNRMC,121048.75,A,5220.44347,N,00448.53208,E,0.039,,141119,,,A,V*1E
375.3419 $GNRMC,121048.85,A,5220.44347,N,00448.53208,E,0.038,,141119,,,A,V*10
375.4479 $GNRMC,121048.95,A,5220.44347,N,00448.53208,E,0.014,,141119,,,A,V*1F
375.5481 $GNRMC,121049.05,A,5220.44347,N,00448.53208,E,0.034,,141119,,,A,V*15
375.6421 $GNRMC,121049.15,A,5220.44347,N,00448.53207,E,0.009,,141119,,,A,V*15
375.7418 $GNRMC,121049.25,A,5220.44347,N,00448.53207,E,0.023,,141119,,,A,V*1E
375.8441 $GNRMC,121049.35,A,5220.44347,N,00448.53207,E,0.035,,141119,,,A,V*18
375.9431 $GNRMC,121049.45,A,5220.44348,N,00448.53207,E,0.044,,141119,,,A,V*16
376.0428 $GNRMC,121049.55,A,5220.44348,N,00448.53207,E,0.018,,141119,,,A,V*1E
376.1461 $GNRMC,121049.65,A,5220.44348,N,00448.53207,E,0.053,,141119,,,A,V*12
376.2447 $GNRMC,121049.75,A,5220.44347,N,00448.53207,E,0.017,,141119,,,A,V*1C
376.3421 $GNRMC,121049.85,A,5220.44348,N,00448.53207,E,0.031,,141119,,,A,V*18
376.4486 $GNRMC,121049.95,A,5220.44348,N,00448.53207,E,0.043,,141119,,,A,V*1C
376.5488 $GNRMC,121050.05,A,5220.44348,N,00448.53207,E,0.015,,141119,,,A,V*1E
376.6418 $GNRMC,121050.15,A,5220.44348,N,00448.53207,E,0.005,,141119,,,A,V*1E
376.7453 $GNRMC,121050.25,A,5220.44347,N,00448.53207,E,0.050,,141119,,,A,V*12
376.8432 $GNRMC,121050.35,A,5220.44347,N,00448.53207,E,0.017,,141119,,,A,V*10
376.943 $GNRMC,121050.45,A,5220.44347,N,00448.53207,E,0.034,,141119,,,A,V*16
377.043 $GNRMC,121050.55,A,5220.44347,N,00448.53207,E,0.038,,141119,,,A,V*1B
377.1431 $GNRMC,121050.65,A,5220.44347,N,00448.53207,E,0.052,,141119,,,A,V*14
377.2432 $GNRMC,121050.75,A,5220.44347,N,00448.53207,E,0.027,,141119,,,A,V*17
377.3428 $GNRMC,121050.85,A,5220.44347,N,00448.53207,E,0.030,,141119,,,A,V*1E
377.4461 $GNRMC,121050.95,A,5220.44347,N,00448.53207,E,0.067,,141119,,,A,V*1D
377.5459 $GNRMC,121051.05,A,5220.44347,N,00448.53206,E,0.030,,141119,,,A,V*16
377.6443 $GNRMC,121051.15,A,5220.44347,N,00448.53206,E,0.031,,141119,,,A,V*16
377.7433 $GNRMC,121051.25,A,5220.44347,N,00448.53206,E,0.018,,141119,,,A,V*1E
377.8433 $GNRMC,121051.35,A,5220.44347,N,00448.53206,E,0.018,,141119,,,A,V*1F
377.9429 $GNRMC,121051.45,A,5220.44347,N,00448.53206,E,0.015,,141119,,,A,V*15
378.0429 $GNRMC,121051.55,A,5220.44347,N,00448.53206,E,0.027,,141119,,,A,V*15
378.143 $GNRMC,121051.65,A,5220.44347,N,00448.53206,E,0.005,,141119,,,A,V*16
378.2422 $GNRMC,121051.75,A,5220.44347,N,00448.53206,E,0.029,,141119,,,A,V*19
378.3399 $GNRMC,121051.85,A,5220.44347,N,00448.53206,E,0.026,,141119,,,A,V*19
378.4459 $GNRMC,121051.95,A,5220.44347,N,00448.53206,E,0.045,,141119,,,A,V*1D
378.553 $GNRMC,121052.05,A,5220.44347,N,00448.53206,E,0.051,,141119,,,A,V*12
378.6452 $GNRMC,121052.15,A,5220.44347,N,00448.53205,E,0.043,,141119,,,A,V*13
378.7442 $GNRMC,121052.25,A,5220.44347,N,00448.53205,E,0.035,,141119,,,A,V*11
378.8449 $GNRMC,121052.35,A,5220.44347,N,00448.53205,E,0.074,,141119,,,A,V*15
378.9428 $GNRMC,121052.45,A,5220.44347,N,00448.53205,E,0.017,,141119,,,A,V*17
379.0428 $GNRMC,121052.55,A,5220.44347,N,00448.53205,E,0.041,,141119,,,A,V*15
379.1423 $GNRMC,121052.65,A,5220.44347,N,00448.53205,E,0.032,,141119,,,A,V*12
379.2402 $GNRMC,121052.75,A,5220.44347,N,00448.53205,E,0.022,,141119,,,A,V*12
379.3402 $GNRMC,121052.85,A,5220.44347,N,00448.53205,E,0.020,,141119,,,A,V*1F
379.4487 $GNRMC,121052.95,A,5220.44347,N,00448.53205,E,0.025,,141119,,,A,V*1B
379.5463 $GNRMC,121053.05,A,5220.44347,N,00448.53205,E,0.034,,141119,,,A,V*13
379.6447 $GNRMC,121053.15,A,5220.44347,N,00448.53204,E,0.037,,141119,,,A,V*10
379.7451 $GNRMC,121053.25,A,5220.44347,N,00448.53204,E,0.018,,141119,,,A,V*1E
379.8428 $GNRMC,121053.35,A,5220.44347,N,00448.53204,E,0.025,,141119,,,A,V*11
379.9429 $GNRMC,121053.45,A,5220.44347,N,00448.53204,E,0.073,,141119,,,A,V*15
380.045 $GNRMC,121053.55,A,5220.44347,N,00448.53204,E,0.014,,141119,,,A,V*15
380.1411 $GNRMC,121053.65,A,5220.44347,N,00448.53204,E,0.040,,141119,,,A,V*17
380.2402 $GNRMC,121053.75,A,5220.44347,N,00448.53204,E,0.012,,141119,,,A,V*11
380.3423 $GNRMC,121053.85,A,5220.44347,N,00448.53204,E,0.017,,141119,,,A,V*1B
380.4478 $GNRMC,121053.95,A,5220.44347,N,00448.53204,E,0.032,,141119,,,A,V*1D
380.5526 $GNRMC,121054.05,A,5220.44347,N,00448.53204,E,0.026,,141119,,,A,V*16
380.6461 $GNRMC,121054.15,A,5220.44347,N,00448.53203,E,0.010,,141119,,,A,V*15
380.7428 $GNRMC,121054.25,A,5220.44347,N,00448.53203,E,0.037,,141119,,,A,V*13
380.8429 $GNRMC,121054.35,A,5220.44346,N,00448.53203,E,0.066,,141119,,,A,V*17
380.943 $GNRMC,121054.45,A,5220.44346,N,00448.53203,E,0.009,,141119,,,A,V*19
381.0416 $GNRMC,121054.55,A,5220.44346,N,00448.53203,E,0.028,,141119,,,A,V*1B
381.1422 $GNRMC,121054.65,A,5220.44346,N,00448.53203,E,0.007,,141119,,,A,V*15
381.2426 $GNRMC,121054.75,A,5220.44346,N,00448.53203,E,0.054,,141119,,,A,V*12
381.342 $GNRMC,121054.85,A,5220.44346,N,00448.53203,E,0.041,,141119,,,A,V*19
381.4481 $GNRMC,121054.95,A,5220.44346,N,00448.53203,E,0.026,,141119,,,A,V*19
381.5468 $GNRMC,121055.05,A,5220.44346,N,00448.53203,E,0.014,,141119,,,A,V*10
381.6427 $GNRMC,121055.15,A,5220.44346,N,00448.53202,E,0.011,,141119,,,A,V*15
381.7431 $GNRMC,121055.25,A,5220.44346,N,00448.53202,E,0.023,,141119,,,A,V*17
381.8427 $GNRMC,121055.35,A,5220.44346,N,00448.53202,E,0.009,,141119,,,A,V*1E
381.941 $GNRMC,121055.45,A,5220.44346,N,00448.53202,E,0.016,,141119,,,A,V*17
382.0409 $GNRMC,121055.55,A,5220.44346,N,00448.53202,E,0.039,,141119,,,A,V*1B
382.1432 $GNRMC,121055.65,A,5220.44346,N,00448.53202,E,0.014,,141119,,,A,V*17
382.2419 $GNRMC,121055.75,A,5220.44345,N,00448.53202,E,0.032,,141119,,,A,V*11
382.3419 $GNRMC,121055.85,A,5220.44345,N,00448.53202,E,0.034,,141119,,,A,V*18
382.448 $GNRMC,121055.95,A,5220.44345,N,00448.53202,E,0.025,,141119,,,A,V*19
382.5491 $GNRMC,121056.05,A,5220.44345,N,00448.53202,E,0.026,,141119,,,A,V*10
382.6453 $GNRMC,121056.15,A,5220.44345,N,00448.53201,E,0.018,,141119,,,A,V*1F
382.744 $GNRMC,121056.25,A,5220.44345,N,00448.53201,E,0.019,,141119,,,A,V*1D
382.8412 $GNRMC,121056.35,A,5220.44345,N,00448.53201,E,0.032,,141119,,,A,V*15
382.9409 $GNRMC,121056.45,A,5220.44345,N,00448.53201,E,0.034,,141119,,,A,V*14
383.043 $GNRMC,121056.55,A,5220.44345,N,00448.53201,E,0.039,,141119,,,A,V*18
383.1427 $GNRMC,121056.65,A,5220.44345,N,00448.53201,E,0.041,,141119,,,A,V*14
383.2428 $GNRMC,121056.75,A,5220.44345,N,00448.53201,E,0.012,,141119,,,A,V*13
383.3426 $GNRMC,121056.85,A,5220.44345,N,00448.53201,E,0.010,,141119,,,A,V*1E
383.4479 $GNRMC,121056.95,A,5220.44345,N,00448.53201,E,0.011,,141119,,,A,V*1E
383.5479 $GNRMC,121057.05,A,5220.44345,N,00448.53201,E,0.033,,141119,,,A,V*16
383.643 $GNRMC,121057.15,A,5220.44345,N,00448.53201,E,0.024,,141119,,,A,V*11
383.7412 $GNRMC,121057.25,A,5220.44344,N,00448.53201,E,0.017,,141119,,,A,V*13
383.841 $GNRMC,121057.35,A,5220.44344,N,00448.53200,E,0.008,,141119,,,A,V*1D
383.9427 $GNRMC,121057.45,A,5220.44344,N,00448.53200,E,0.037,,141119,,,A,V*16
384.042 $GNRMC,121057.55,A,5220.44344,N,00448.53200,E,0.015,,141119,,,A,V*17
384.1429 $GNRMC,121057.65,A,5220.44344,N,00448.53200,E,0.021,,141119,,,A,V*13
384.242 $GNRMC,121057.75,A,5220.44344,N,00448.53200,E,0.013,,141119,,,A,V*13
384.3412 $GNRMC,121057.85,A,5220.44344,N,00448.53200,E,0.024,,141119,,,A,V*18
384.4477 $GNRMC,121057.95,A,5220.44344,N,00448.53200,E,0.016,,141119,,,A,V*18
384.5521 $GNRMC,121058.05,A,5220.44344,N,00448.53200,E,0.020,,141119,,,A,V*1B
384.6417 $GNRMC,121058.15,A,5220.44344,N,00448.53200,E,0.026,,141119,,,A,V*1C
384.7409 $GNRMC,121058.25,A,5220.44344,N,00448.53200,E,0.027,,141119,,,A,V*1E
384.8423 $GNRMC,121058.35,A,5220.44344,N,00448.53199,E,0.037,,141119,,,A,V*1D
384.942 $GNRMC,121058.45,A,5220.44343,N,00448.53199,E,0.014,,141119,,,A,V*1C
385.043 $GNRMC,121058.55,A,5220.44343,N,00448.53199,E,0.023,,141119,,,A,V*19
385.1428 $GNRMC,121058.65,A,5220.44343,N,00448.53199,E,0.028,,141119,,,A,V*11
385.2418 $GNRMC,121058.75,A,5220.44343,N,00448.53199,E,0.020,,141119,,,A,V*18
385.3421 $GNRMC,121058.85,A,5220.44343,N,00448.53199,E,0.019,,141119,,,A,V*1D
385.4482 $GNRMC,121058.95,A,5220.44343,N,00448.53199,E,0.024,,141119,,,A,V*12
385.5451 $GNRMC,121059.05,A,5220.44343,N,00448.53199,E,0.006,,141119,,,A,V*1A
385.641 $GNRMC,121059.15,A,5220.44343,N,00448.53199,E,0.020,,141119,,,A,V*1F
385.7428 $GNRMC,121059.25,A,5220.44343,N,00448.53199,E,0.036,,141119,,,A,V*1B
385.8429 $GNRMC,121059.35,A,5220.44343,N,00448.53199,E,0.024,,141119,,,A,V*19
385.9433 $GNRMC,121059.45,A,5220.44343,N,00448.53199,E,0.020,,141119,,,A,V*1A
386.0432 $GNRMC,121059.55,A,5220.44343,N,00448.53199,E,0.002,,141119,,,A,V*1B
386.1431 $GNRMC,121059.65,A,5220.44343,N,00448.53198,E,0.022,,141119,,,A,V*1B
386.2432 $GNRMC,121059.75,A,5220.44342,N,00448.53198,E,0.034,,141119,,,A,V*1C
386.343 $GNRMC,121059.85,A,5220.44342,N,00448.53198,E,0.021,,141119,,,A,V*17
386.4469 $GNRMC,121059.95,A,5220.44342,N,00448.53198,E,0.038,,141119,,,A,V*1E
386.5502 $GNRMC,121100.05,A,5220.44342,N,00448.53198,E,0.017,,141119,,,A,V*17
386.644 $GNRMC,121100.15,A,5220.44342,N,00448.53198,E,0.039,,141119,,,A,V*1A
386.7431 $GNRMC,121100.25,A,5220.44342,N,00448.53198,E,0.037,,141119,,,A,V*17
386.8433 $GNRMC,121100.35,A,5220.44342,N,00448.53198,E,0.029,,141119,,,A,V*19
386.9433 $GNRMC,121100.45,A,5220.44342,N,00448.53198,E,0.004,,141119,,,A,V*11
387.043 $GNRMC,121100.55,A,5220.44342,N,00448.53198,E,0.030,,141119,,,A,V*17
387.1433 $GNRMC,121100.65,A,5220.44342,N,00448.53198,E,0.009,,141119,,,A,V*1E
387.243 $GNRMC,121100.75,A,5220.44342,N,00448.53198,E,0.027,,141119,,,A,V*13
387.3413 $GNRMC,121100.85,A,5220.44342,N,00448.53197,E,0.040,,141119,,,A,V*12
387.4469 $GNRMC,121100.95,A,5220.44342,N,00448.53197,E,0.013,,141119,,,A,V*15
387.5479 $GNRMC,121101.05,A,5220.44342,N,00448.53197,E,0.018,,141119,,,A,V*16
387.6442 $GNRMC,121101.15,A,5220.44342,N,00448.53197,E,0.028,,141119,,,A,V*14
387.7443 $GNRMC,121101.25,A,5220.44342,N,00448.53197,E,0.027,,141119,,,A,V*18
387.8459 $GNRMC,121101.35,A,5220.44341,N,00448.53197,E,0.027,,141119,,,A,V*1A
387.9447 $GNRMC,121101.45,A,5220.44341,N,00448.53197,E,0.012,,141119,,,A,V*1B
388.0453 $GNRMC,121101.55,A,5220.44341,N,00448.53197,E,0.027,,141119,,,A,V*1C
388.1442 $GNRMC,121101.65,A,5220.44341,N,00448.53197,E,0.015,,141119,,,A,V*1E
388.2412 $GNRMC,121101.75,A,5220.44341,N,00448.53197,E,0.049,,141119,,,A,V*16
388.341 $GNRMC,121101.85,A,5220.44341,N,00448.53196,E,0.020,,141119,,,A,V*17
388.4491 $GNRMC,121101.95,A,5220.44341,N,00448.53196,E,0.042,,141119,,,A,V*12
388.5523 $GNRMC,121102.05,A,5220.44341,N,00448.53196,E,0.017,,141119,,,A,V*18
388.6459 $GNRMC,121102.15,A,5220.44341,N,00448.53196,E,0.022,,141119,,,A,V*1F
388.7462 $GNRMC,121102.25,A,5220.44341,N,00448.53196,E,0.012,,141119,,,A,V*1F
388.8433 $GNRMC,121102.35,A,5220.44341,N,00448.53196,E,0.017,,141119,,,A,V*1B
388.9433 $GNRMC,121102.45,A,5220.44341,N,00448.53196,E,0.023,,141119,,,A,V*1B
389.0432 $GNRMC,121102.55,A,5220.44341,N,00448.53196,E,0.023,,141119,,,A,V*1A
389.1421 $GNRMC,121102.65,A,5220.44341,N,00448.53196,E,0.029,,141119,,,A,V*13
389.2416 $GNRMC,121102.75,A,5220.44341,N,00448.53196,E,0.028,,141119,,,A,V*13
389.3431 $GNRMC,121102.85,A,5220.44341,N,00448.53196,E,0.015,,141119,,,A,V*12
389.4488 $GNRMC,121102.95,A,5220.44341,N,00448.53196,E,0.010,,141119,,,A,V*16
389.5479 $GNRMC,121103.05,A,5220.44341,N,00448.53196,E,0.040,,141119,,,A,V*1B
389.6472 $GNRMC,121103.15,A,5220.44341,N,00448.53195,E,0.027,,141119,,,A,V*18
389.7448 $GNRMC,121103.25,A,5220.44341,N,00448.53195,E,0.004,,141119,,,A,V*1A
389.8453 $GNRMC,121103.35,A,5220.44340,N,00448.53195,E,0.056,,141119,,,A,V*1D
389.9442 $GNRMC,121103.45,A,5220.44340,N,00448.53195,E,0.027,,141119,,,A,V*1C
390.0419 $GNRMC,121103.55,A,5220.44340,N,00448.53195,E,0.045,,141119,,,A,V*19
390.141 $GNRMC,121103.65,A,5220.44340,N,00448.53195,E,0.033,,141119,,,A,V*1B
390.2422 $GNRMC,121103.75,A,5220.44340,N,00448.53195,E,0.027,,141119,,,A,V*1F
390.3412 $GNRMC,121103.85,A,5220.44340,N,00448.53195,E,0.031,,141119,,,A,V*17
390.4473 $GNRMC,121103.95,A,5220.44340,N,00448.53195,E,0.038,,141119,,,A,V*1F
390.5512 $GNRMC,121104.05,A,5220.44340,N,00448.53195,E,0.046,,141119,,,A,V*18
390.6448 $GNRMC,121104.15,A,5220.44340,N,00448.53195,E,0.030,,141119,,,A,V*18
390.744 $GNRMC,121104.25,A,5220.44340,N,00448.53194,E,0.037,,141119,,,A,V*1D
390.8428 $GNRMC,121104.35,A,5220.44340,N,00448.53194,E,0.018,,141119,,,A,V*11
390.9412 $GNRMC,121104.45,A,5220.44340,N,00448.53194,E,0.032,,141119,,,A,V*1E
391.0411 $GNRMC,121104.55,A,5220.44340,N,00448.53194,E,0.055,,141119,,,A,V*1E
391.1422 $GNRMC,121104.65,A,5220.44340,N,00448.53194,E,0.029,,141119,,,A,V*16
391.2423 $GNRMC,121104.75,A,5220.44340,N,00448.53194,E,0.018,,141119,,,A,V*15
391.3429 $GNRMC,121104.85,A,5220.44340,N,00448.53194,E,0.018,,141119,,,A,V*1A
391.449 $GNRMC,121104.95,A,5220.44340,N,00448.53194,E,0.029,,141119,,,A,V*19
391.548 $GNRMC,121105.05,A,5220.44340,N,00448.53194,E,0.013,,141119,,,A,V*18
391.6442 $GNRMC,121105.15,A,5220.44340,N,00448.53194,E,0.023,,141119,,,A,V*1A
391.7441 $GNRMC,121105.25,A,5220.44340,N,00448.53194,E,0.000,,141119,,,A,V*18
391.8419 $GNRMC,121105.35,A,5220.44340,N,00448.53194,E,0.054,,141119,,,A,V*18
391.9418 $GNRMC,121105.45,A,5220.44340,N,00448.53193,E,0.035,,141119,,,A,V*1F
392.0431 $GNRMC,121105.55,A,5220.44340,N,00448.53193,E,0.005,,141119,,,A,V*1D
392.1432 $GNRMC,121105.65,A,5220.44340,N,00448.53193,E,0.013,,141119,,,A,V*19
392.243 $GNRMC,121105.75,A,5220.44339,N,00448.53193,E,0.012,,141119,,,A,V*17
392.3428 $GNRMC,121105.85,A,5220.44339,N,00448.53193,E,0.040,,141119,,,A,V*1F
392.4482 $GNRMC,121105.95,A,5220.44339,N,00448.53193,E,0.010,,141119,,,A,V*1B
392.5529 $GNRMC,121106.05,A,5220.44339,N,00448.53193,E,0.011,,141119,,,A,V*10
392.6432 $GNRMC,121106.15,A,5220.44339,N,00448.53193,E,0.025,,141119,,,A,V*16
392.7418 $GNRMC,121106.25,A,5220.44339,N,00448.53193,E,0.040,,141119,,,A,V*16
392.8412 $GNRMC,121106.35,A,5220.44339,N,00448.53192,E,0.012,,141119,,,A,V*11
392.9431 $GNRMC,121106.45,A,5220.44339,N,00448.53192,E,0.038,,141119,,,A,V*1E
393.0428 $GNRMC,121106.55,A,5220.44339,N,00448.53192,E,0.020,,141119,,,A,V*16
393.1448 $GNRMC,121106.65,A,5220.44339,N,00448.53192,E,0.041,,141119,,,A,V*12
393.2429 $GNRMC,121106.75,A,5220.44339,N,00448.53192,E,0.021,,141119,,,A,V*15
393.3423 $GNRMC,121106.85,A,5220.44339,N,00448.53192,E,0.043,,141119,,,A,V*1E
393.4489 $GNRMC,121106.95,A,5220.44339,N,00448.53192,E,0.045,,141119,,,A,V*19
393.549 $GNRMC,121107.05,A,5220.44339,N,00448.53191,E,0.056,,141119,,,A,V*10
393.6418 $GNRMC,121107.15,A,5220.44339,N,00448.53191,E,0.011,,141119,,,A,V*12
393.7419 $GNRMC,121107.25,A,5220.44339,N,00448.53191,E,0.015,,141119,,,A,V*15
393.8432 $GNRMC,121107.35,A,5220.44339,N,00448.53191,E,0.043,,141119,,,A,V*17
393.943 $GNRMC,121107.45,A,5220.44339,N,00448.53191,E,0.010,,141119,,,A,V*16
394.0433 $GNRMC,121107.55,A,5220.44339,N,00448.53191,E,0.012,,141119,,,A,V*15
394.1433 $GNRMC,121107.65,A,5220.44339,N,00448.53191,E,0.038,,141119,,,A,V*1E
394.2423 $GNRMC,121107.75,A,5220.44339,N,00448.53191,E,0.020,,141119,,,A,V*16
394.343 $GNRMC,121107.85,A,5220.44339,N,00448.53191,E,0.012,,141119,,,A,V*18
394.4491 $GNRMC,121107.95,A,5220.44339,N,00448.53191,E,0.014,,141119,,,A,V*1F
394.5489 $GNRMC,121108.05,A,5220.44339,N,00448.53191,E,0.020,,141119,,,A,V*1E
394.645 $GNRMC,121108.15,A,5220.44339,N,00448.53191,E,0.061,,141119,,,A,V*1A
394.7451 $GNRMC,121108.25,A,5220.44339,N,00448.53190,E,0.032,,141119,,,A,V*1E
394.8433 $GNRMC,121108.35,A,5220.44339,N,00448.53190,E,0.046,,141119,,,A,V*1C
394.9433 $GNRMC,121108.45,A,5220.44339,N,00448.53190,E,0.033,,141119,,,A,V*19
395.0431 $GNRMC,121108.55,A,5220.44339,N,00448.53190,E,0.027,,141119,,,A,V*1D
395.1427 $GNRMC,121108.65,A,5220.44339,N,00448.53190,E,0.036,,141119,,,A,V*1E
395.2431 $GNRMC,121108.75,A,5220.44339,N,00448.53190,E,0.016,,141119,,,A,V*1D
395.3429 $GNRMC,121108.85,A,5220.44339,N,00448.53190,E,0.009,,141119,,,A,V*1C
395.4463 $GNRMC,121108.95,A,5220.44339,N,00448.53190,E,0.028,,141119,,,A,V*1E
395.5453 $GNRMC,121109.05,A,5220.44338,N,00448.53190,E,0.012,,141119,,,A,V*1E
395.6432 $GNRMC,121109.15,A,5220.44338,N,00448.53190,E,0.006,,141119,,,A,V*1A
395.743 $GNRMC,121109.25,A,5220.44338,N,00448.53189,E,0.038,,141119,,,A,V*1C
395.8433 $GNRMC,121109.35,A,5220.44338,N,00448.53189,E,0.021,,141119,,,A,V*15
395.9432 $GNRMC,121109.45,A,5220.44338,N,00448.53189,E,0.029,,141119,,,A,V*1A
396.043 $GNRMC,121109.55,A,5220.44338,N,00448.53189,E,0.015,,141119,,,A,V*14
396.1442 $GNRMC,121109.65,A,5220.44338,N,00448.53189,E,0.013,,141119,,,A,V*11
396.2429 $GNRMC,121109.75,A,5220.44338,N,00448.53189,E,0.022,,141119,,,A,V*12
396.3403 $GNRMC,121109.85,A,5220.44338,N,00448.53189,E,0.033,,141119,,,A,V*1D
396.4463 $GNRMC,121109.95,A,5220.44338,N,00448.53189,E,0.017,,141119,,,A,V*1A
396.5511 $GNRMC,121110.05,A,5220.44338,N,00448.53188,E,0.031,,141119,,,A,V*1E
396.6429 $GNRMC,121110.15,A,5220.44338,N,00448.53188,E,0.011,,141119,,,A,V*1D
396.744 $GNRMC,121110.25,A,5220.44338,N,00448.53188,E,0.045,,141119,,,A,V*1F
396.8431 $GNRMC,121110.35,A,5220.44338,N,00448.53188,E,0.012,,141119,,,A,V*1C
396.9429 $GNRMC,121110.45,A,5220.44338,N,00448.53188,E,0.022,,141119,,,A,V*18
397.0432 $GNRMC,121110.55,A,5220.44338,N,00448.53188,E,0.010,,141119,,,A,V*18
397.1429 $GNRMC,121110.65,A,5220.44338,N,00448.53188,E,0.034,,141119,,,A,V*1D
397.2413 $GNRMC,121110.75,A,5220.44338,N,00448.53188,E,0.041,,141119,,,A,V*1E
397.3412 $GNRMC,121110.85,A,5220.44338,N,00448.53188,E,0.027,,141119,,,A,V*11
397.4491 $GNRMC,121110.95,A,5220.44339,N,00448.53188,E,0.018,,141119,,,A,V*1D
397.5472 $GNRMC,121111.05,A,5220.44339,N,00448.53187,E,0.037,,141119,,,A,V*17
397.6447 $GNRMC,121111.15,A,5220.44339,N,00448.53187,E,0.062,,141119,,,A,V*16
397.7441 $GNRMC,121111.25,A,5220.44339,N,00448.53187,E,0.013,,141119,,,A,V*13
397.8433 $GNRMC,121111.35,A,5220.44339,N,00448.53187,E,0.018,,141119,,,A,V*19
397.9452 $GNRMC,121111.45,A,5220.44339,N,00448.53187,E,0.013,,141119,,,A,V*15
398.0459 $GNRMC,121111.55,A,5220.44339,N,00448.53187,E,0.047,,141119,,,A,V*15
398.143 $GNRMC,121111.65,A,5220.44339,N,00448.53187,E,0.038,,141119,,,A,V*1E
398.2417 $GNRMC,121111.75,A,5220.44339,N,00448.53186,E,0.011,,141119,,,A,V*15
398.3428 $GNRMC,121111.85,A,5220.44339,N,00448.53186,E,0.042,,141119,,,A,V*1C
398.4483 $GNRMC,121111.95,A,5220.44339,N,00448.53186,E,0.022,,141119,,,A,V*1B
398.5542 $GNRMC,121112.05,A,5220.44339,N,00448.53186,E,0.006,,141119,,,A,V*17
398.6433 $GNRMC,121112.15,A,5220.44339,N,00448.53186,E,0.025,,141119,,,A,V*17
398.743 $GNRMC,121112.25,A,5220.44339,N,00448.53186,E,0.024,,141119,,,A,V*15
398.8432 $GNRMC,121112.35,A,5220.44339,N,00448.53186,E,0.005,,141119,,,A,V*17
398.9431 $GNRMC,121112.45,A,5220.44339,N,00448.53186,E,0.018,,141119,,,A,V*1C
399.0416 $GNRMC,121112.55,A,5220.44339,N,00448.53186,E,0.005,,141119,,,A,V*11
399.1412 $GNRMC,121112.65,A,5220.44339,N,00448.53185,E,0.027,,141119,,,A,V*11
399.243 $GNRMC,121112.75,A,5220.44339,N,00448.53185,E,0.029,,141119,,,A,V*1E
399.3423 $GNRMC,121112.85,A,5220.44339,N,00448.53185,E,0.018,,141119,,,A,V*13
399.4489 $GNRMC,121112.95,A,5220.44339,N,00448.53185,E,0.028,,141119,,,A,V*11
399.5479 $GNRMC,121113.05,A,5220.44339,N,00448.53185,E,0.024,,141119,,,A,V*15
399.643 $GNRMC,121113.15,A,5220.44339,N,00448.53185,E,0.032,,141119,,,A,V*13
399.744 $GNRMC,121113.25,A,5220.44339,N,00448.53185,E,0.021,,141119,,,A,V*12
399.8431 $GNRMC,121113.35,A,5220.44339,N,00448.53185,E,0.017,,141119,,,A,V*16
399.9417 $GNRMC,121113.45,A,5220.44339,N,00448.53184,E,0.019,,141119,,,A,V*1E
400.0413 $GNRMC,121113.55,A,5220.44338,N,00448.53184,E,0.020,,141119,,,A,V*14
400.1432 $GNRMC,121113.65,A,5220.44338,N,00448.53184,E,0.040,,141119,,,A,V*11
400.2422 $GNRMC,121113.75,A,5220.44338,N,00448.53184,E,0.031,,141119,,,A,V*16
400.3429 $GNRMC,121113.85,A,5220.44338,N,00448.53184,E,0.014,,141119,,,A,V*1E
400.449 $GNRMC,121113.95,A,5220.44338,N,00448.53184,E,0.055,,141119,,,A,V*1A
400.5519 $GNRMC,121114.05,A,5220.44338,N,00448.53183,E,0.023,,141119,,,A,V*12
400.6441 $GNRMC,121114.15,A,5220.44338,N,00448.53183,E,0.032,,141119,,,A,V*13
400.747 $GNRMC,121114.25,A,5220.44338,N,00448.53183,E,0.015,,141119,,,A,V*15
400.842 $GNRMC,121114.35,A,5220.44338,N,00448.53183,E,0.020,,141119,,,A,V*12
400.9422 $GNRMC,121114.45,A,5220.44338,N,00448.53183,E,0.037,,141119,,,A,V*13
401.0442 $GNRMC,121114.55,A,5220.44338,N,00448.53183,E,0.020,,141119,,,A,V*14
401.1451 $GNRMC,121114.65,A,5220.44338,N,00448.53183,E,0.020,,141119,,,A,V*17
401.2442 $GNRMC,121114.75,A,5220.44338,N,00448.53183,E,0.057,,141119,,,A,V*16
401.3433 $GNRMC,121114.85,A,5220.44338,N,00448.53182,E,0.016,,141119,,,A,V*1D
401.4488 $GNRMC,121114.95,A,5220.44338,N,00448.53182,E,0.014,,141119,,,A,V*1E
401.5492 $GNRMC,121115.05,A,5220.44338,N,00448.53182,E,0.012,,141119,,,A,V*10
401.6431 $GNRMC,121115.15,A,5220.44338,N,00448.53182,E,0.022,,141119,,,A,V*12
401.7417 $GNRMC,121115.25,A,5220.44338,N,00448.53182,E,0.004,,141119,,,A,V*15
401.8412 $GNRMC,121115.35,A,5220.44338,N,00448.53182,E,0.021,,141119,,,A,V*13
401.943 $GNRMC,121115.45,A,5220.44338,N,00448.53182,E,0.038,,141119,,,A,V*1C
402.0428 $GNRMC,121115.55,A,5220.44337,N,00448.53182,E,0.027,,141119,,,A,V*1C
402.1433 $GNRMC,121115.65,A,5220.44337,N,00448.53182,E,0.043,,141119,,,A,V*1D
402.2426 $GNRMC,121115.75,A,5220.44337,N,00448.53181,E,0.021,,141119,,,A,V*1B
402.3421 $GNRMC,121115.85,A,5220.44337,N,00448.53181,E,0.031,,141119,,,A,V*15
402.4487 $GNRMC,121115.95,A,5220.44337,N,00448.53181,E,0.013,,141119,,,A,V*14
402.5529 $GNRMC,121116.05,A,5220.44337,N,00448.53181,E,0.024,,141119,,,A,V*1A
402.6421 $GNRMC,121116.15,A,5220.44337,N,00448.53181,E,0.010,,141119,,,A,V*1C
402.7418 $GNRMC,121116.25,A,5220.44337,N,00448.53181,E,0.035,,141119,,,A,V*18
402.8431 $GNRMC,121116.35,A,5220.44337,N,00448.53181,E,0.008,,141119,,,A,V*17
402.9428 $GNRMC,121116.45,A,5220.44337,N,00448.53181,E,0.016,,141119,,,A,V*1F
403.0431 $GNRMC,121116.55,A,5220.44337,N,00448.53181,E,0.037,,141119,,,A,V*1D
403.1431 $GNRMC,121116.65,A,5220.44337,N,00448.53181,E,0.011,,141119,,,A,V*1A
403.2427 $GNRMC,121116.75,A,5220.44337,N,00448.53181,E,0.021,,141119,,,A,V*18
403.343 $GNRMC,121116.85,A,5220.44337,N,00448.53181,E,0.014,,141119,,,A,V*11
403.4491 $GNRMC,121116.95,A,5220.44337,N,00448.53181,E,0.043,,141119,,,A,V*12
403.5453 $GNRMC,121117.05,A,5220.44337,N,00448.53181,E,0.007,,141119,,,A,V*1A
403.6417 $GNRMC,121117.15,A,5220.44337,N,00448.53180,E,0.020,,141119,,,A,V*1F
403.7433 $GNRMC,121117.25,A,5220.44337,N,00448.53180,E,0.038,,141119,,,A,V*15
403.8428 $GNRMC,121117.35,A,5220.44337,N,00448.53180,E,0.025,,141119,,,A,V*18
403.9432 $GNRMC,121117.45,A,5220.44337,N,00448.53180,E,0.018,,141119,,,A,V*11
404.0431 $GNRMC,121117.55,A,5220.44337,N,00448.53180,E,0.030,,141119,,,A,V*1A
404.143 $GNRMC,121117.65,A,5220.44337,N,00448.53180,E,0.004,,141119,,,A,V*1E
404.243 $GNRMC,121117.75,A,5220.44337,N,00448.53180,E,0.039,,141119,,,A,V*11
404.3427 $GNRMC,121117.85,A,5220.44337,N,00448.53180,E,0.043,,141119,,,A,V*13
404.4462 $GNRMC,121117.95,A,5220.44337,N,00448.53180,E,0.021,,141119,,,A,V*16
404.5513 $GNRMC,121118.05,A,5220.44337,N,00448.53180,E,0.035,,141119,,,A,V*15
404.6433 $GNRMC,121118.15,A,5220.44337,N,00448.53180,E,0.015,,141119,,,A,V*16
404.743 $GNRMC,121118.25,A,5220.44337,N,00448.53179,E,0.004,,141119,,,A,V*13
404.8432 $GNRMC,121118.35,A,5220.44337,N,00448.53179,E,0.012,,141119,,,A,V*15
404.9431 $GNRMC,121118.45,A,5220.44337,N,00448.53179,E,0.017,,141119,,,A,V*17
405.0428 $GNRMC,121118.55,A,5220.44337,N,00448.53179,E,0.009,,141119,,,A,V*19
405.1432 $GNRMC,121118.65,A,5220.44337,N,00448.53179,E,0.035,,141119,,,A,V*15
405.2429 $GNRMC,121118.75,A,5220.44337,N,00448.53179,E,0.028,,141119,,,A,V*18
405.3411 $GNRMC,121118.85,A,5220.44337,N,00448.53179,E,0.024,,141119,,,A,V*1B
405.4463 $GNRMC,121118.95,A,5220.44337,N,00448.53179,E,0.022,,141119,,,A,V*1C
405.5479 $GNRMC,121119.05,A,5220.44337,N,00448.53179,E,0.024,,141119,,,A,V*12
405.6428 $GNRMC,121119.15,A,5220.44337,N,00448.53179,E,0.047,,141119,,,A,V*16
405.7432 $GNRMC,121119.25,A,5220.44337,N,00448.53179,E,0.072,,141119,,,A,V*13
405.843 $GNRMC,121119.35,A,5220.44337,N,00448.53179,E,0.019,,141119,,,A,V*1F
405.9427 $GNRMC,121119.45,A,5220.44337,N,00448.53178,E,0.010,,141119,,,A,V*10
406.0431 $GNRMC,121119.55,A,5220.44337,N,00448.53178,E,0.024,,141119,,,A,V*16
406.1443 $GNRMC,121119.65,A,5220.44337,N,00448.53178,E,0.016,,141119,,,A,V*14
406.2411 $GNRMC,121119.75,A,5220.44337,N,00448.53178,E,0.031,,141119,,,A,V*10
406.341 $GNRMC,121119.85,A,5220.44337,N,00448.53178,E,0.007,,141119,,,A,V*1A
406.4489 $GNRMC,121119.95,A,5220.44337,N,00448.53178,E,0.019,,141119,,,A,V*14
406.5503 $GNRMC,121120.05,A,5220.44337,N,00448.53178,E,0.021,,141119,,,A,V*1C
406.646 $GNRMC,121120.15,A,5220.44337,N,00448.53178,E,0.040,,141119,,,A,V*1A
406.745 $GNRMC,121120.25,A,5220.44337,N,00448.53178,E,0.016,,141119,,,A,V*1A
406.8431 $GNRMC,121120.35,A,5220.44337,N,00448.53177,E,0.039,,141119,,,A,V*19
406.9432 $GNRMC,121120.45,A,5220.44337,N,00448.53177,E,0.057,,141119,,,A,V*16
407.0431 $GNRMC,121120.55,A,5220.44337,N,00448.53177,E,0.037,,141119,,,A,V*11
407.1413 $GNRMC,121120.65,A,5220.44337,N,00448.53177,E,0.032,,141119,,,A,V*17
407.2412 $GNRMC,121120.75,A,5220.44337,N,00448.53177,E,0.010,,141119,,,A,V*16
407.3429 $GNRMC,121120.85,A,5220.44337,N,00448.53177,E,0.011,,141119,,,A,V*18
407.4483 $GNRMC,121120.95,A,5220.44337,N,00448.53177,E,0.008,,141119,,,A,V*11
407.5471 $GNRMC,121121.05,A,5220.44337,N,00448.53177,E,0.024,,141119,,,A,V*17
407.6441 $GNRMC,121121.15,A,5220.44337,N,00448.53177,E,0.043,,141119,,,A,V*17
407.743 $GNRMC,121121.25,A,5220.44337,N,00448.53177,E,0.011,,141119,,,A,V*13
407.8431 $GNRMC,121121.35,A,5220.44337,N,00448.53176,E,0.006,,141119,,,A,V*15
407.9431 $GNRMC,121121.45,A,5220.44337,N,00448.53176,E,0.037,,141119,,,A,V*10
408.0413 $GNRMC,121121.55,A,5220.44337,N,00448.53176,E,0.018,,141119,,,A,V*1C
408.1417 $GNRMC,121121.65,A,5220.44337,N,00448.53176,E,0.034,,141119,,,A,V*11
408.2426 $GNRMC,121121.75,A,5220.44337,N,00448.53176,E,0.027,,141119,,,A,V*12
408.3421 $GNRMC,121121.85,A,5220.44337,N,00448.53175,E,0.028,,141119,,,A,V*11
408.4483 $GNRMC,121121.95,A,5220.44337,N,00448.53175,E,0.009,,141119,,,A,V*13
408.552 $GNRMC,121122.05,A,5220.44337,N,00448.53175,E,0.018,,141119,,,A,V*19
408.6431 $GNRMC,121122.15,A,5220.44337,N,00448.53175,E,0.046,,141119,,,A,V*13
408.7447 $GNRMC,121122.25,A,5220.44337,N,00448.53175,E,0.048,,141119,,,A,V*1E
408.8431 $GNRMC,121122.35,A,5220.44337,N,00448.53175,E,0.031,,141119,,,A,V*11
408.9413 $GNRMC,121122.45,A,5220.44337,N,00448.53175,E,0.043,,141119,,,A,V*13
409.0413 $GNRMC,121122.55,A,5220.44337,N,00448.53174,E,0.028,,141119,,,A,V*1E
409.143 $GNRMC,121122.65,A,5220.44337,N,00448.53174,E,0.002,,141119,,,A,V*15
409.2427 $GNRMC,121122.75,A,5220.44337,N,00448.53174,E,0.019,,141119,,,A,V*1E
409.3431 $GNRMC,121122.85,A,5220.44337,N,00448.53174,E,0.010,,141119,,,A,V*18
