1 00098B91 $GNGGA,124110.000,4906.1616,N,00202.3233,E,1,11,0.9,115.6,M,46.9,M,,0000*4E
1 00098C29 $GNGLL,4906.1616,N,00202.3233,E,124110.000,A,A*4A
1 00098CD3 $GNGSA,A,3,25,26,31,29,02,14,23,21,,,,,1.4,0.9,1.1*2F
1 00098D5C $GNGSA,A,3,211,212,213,,,,,,,,,,1.4,0.9,1.1*13
1 00098E33 $GNRMC,124110.000,A,4906.1616,N,00202.3233,E,000.0,000.0,310518,,,A*73
1 00098E99 >08|03: $GNRMC,124110.000,A,4906.1616,N,00202.3233,E,0.0,000.0,310518,,,A,111111001111<16
1 00098F1A $GNVTG,000.0,T,,M,000.0,N,000.0,K,A*13
1 00098F53 $GNZDA,124110.000,31,05,2018,00,00*43
1 00098FB2 $PSTI,20,0,1,1,0,A,0,1,3.70,100.00,-0.06,0.00*72
1 000A08F5 $GNGGA,124111.000,4906.1616,N,00202.3233,E,1,12,0.8,115.6,M,46.9,M,,0000*4D
1 000A098A $GNGLL,4906.1616,N,00202.3233,E,124111.000,A,A*4B
1 000A0A36 $GNGSA,A,3,25,26,31,29,02,05,14,23,21,,,,1.3,0.8,1.0*2D
1 000A0AC6 $GNGSA,A,3,211,212,213,,,,,,,,,,1.3,0.8,1.0*14
1 000A0B9B $GNRMC,124111.000,A,4906.1616,N,00202.3233,E,000.0,000.0,310518,,,A*72
1 000A0C01 >08|03: $GNRMC,124111.000,A,4906.1616,N,00202.3233,E,0.0,000.0,310518,,,A,111111001111<17
1 000A0C82 $GNVTG,000.0,T,,M,000.0,N,000.0,K,A*13
1 000A0CBB $GNZDA,124111.000,31,05,2018,00,00*42
1 000A0D1C $PSTI,20,0,1,1,0,A,0,1,3.70,100.00,-0.08,0.00*7C
1 000A88F8 $GNGGA,124112.000,4906.1616,N,00202.3233,E,1,12,0.8,115.6,M,46.9,M,,0000*4E
1 000A8989 $GNGLL,4906.1616,N,00202.3233,E,124112.000,A,A*48
1 000A8A36 $GNGSA,A,3,25,26,31,29,02,05,14,23,21,,,,1.3,0.8,1.0*2D
1 000A8AC6 $GNGSA,A,3,211,212,213,,,,,,,,,,1.3,0.8,1.0*14
1 000A8B9D $GPGSV,4,1,13,29,73,057,46,31,62,240,47,25,44,105,44,26,41,294,47*7C
1 000A8C65 $GPGSV,4,2,13,21,30,175,32,02,13,038,35,14,10,236,25,05,09,070,25*7A
1 000A8D36 $GPGSV,4,3,13,23,08,326,35,12,05,106,17,33,00,000,39,04,00,000,46*7F
1 000A8D99 $GPGSV,4,4,13,16,00,000,41*49
1 000A8E46 $BDGSV,1,1,03,211,76,073,40,212,21,052,34,213,20,042,30*6D
1 000A8F1C $GNRMC,124112.000,A,4906.1616,N,00202.3233,E,000.0,000.0,310518,,,A*71
1 000A8F82 >08|03: $GNRMC,124112.000,A,4906.1616,N,00202.3233,E,0.0,000.0,310518,,,A,111111001111<14
1 000A9003 $GNVTG,000.0,T,,M,000.0,N,000.0,K,A*13
1 000A903B $GNZDA,124112.000,31,05,2018,00,00*41
1 000A909D $PSTI,20,0,1,1,0,A,0,1,3.70,100.00,-0.00,0.00*74
1 000B08E0 $GNGGA,124113.000,4906.1616,N,00202.3233,E,1,12,0.8,115.6,M,46.9,M,,0000*4F
1 000B097A $GNGLL,4906.1616,N,00202.3233,E,124113.000,A,A*49
1 000B0A25 $GNGSA,A,3,25,26,31,29,02,05,14,23,21,,,,1.3,0.8,1.0*2D
1 000B0AB2 $GNGSA,A,3,211,212,213,,,,,,,,,,1.3,0.8,1.0*14
1 000B0B88 $GNRMC,124113.000,A,4906.1616,N,00202.3233,E,000.0,000.0,310518,,,A*70
1 000B0BEF >08|03: $GNRMC,124113.000,A,4906.1616,N,00202.3233,E,0.0,000.0,310518,,,A,111111001111<15
1 000B0C70 $GNVTG,000.0,T,,M,000.0,N,000.0,K,A*13
1 000B0CA8 $GNZDA,124113.000,31,05,2018,00,00*40
1 000B0D0A $PSTI,20,0,1,1,0,A,0,1,3.70,100.00,-0.01,0.00*75
1 000B88F5 $GNGGA,124114.000,4906.1616,N,00202.3233,E,1,12,0.8,115.6,M,46.9,M,,0000*48
1 000B898A $GNGLL,4906.1616,N,00202.3233,E,124114.000,A,A*4E
1 000B8A37 $GNGSA,A,3,25,26,31,29,02,05,14,23,21,,,,1.3,0.8,1.0*2D
1 000B8AC6 $GNGSA,A,3,211,212,213,,,,,,,,,,1.3,0.8,1.0*14
1 000B8B9B $GNRMC,124114.000,A,4906.1616,N,00202.3233,E,000.0,000.0,310518,,,A*77
1 000B8C01 >08|03: $GNRMC,124114.000,A,4906.1616,N,00202.3233,E,0.0,000.0,310518,,,A,111111001111<12
1 000B8C82 $GNVTG,000.0,T,,M,000.0,N,000.0,K,A*13
1 000B8CBB $GNZDA,124114.000,31,05,2018,00,00*47
1 000B8D1C $PSTI,20,0,1,1,0,A,0,1,3.70,100.00,-0.01,0.00*75
1 000C08E8 $GNGGA,124115.000,4906.1616,N,00202.3233,E,1,12,0.8,115.6,M,46.9,M,,0000*49
1 000C097A $GNGLL,4906.1616,N,00202.3233,E,124115.000,A,A*4F
1 000C0A26 $GNGSA,A,3,25,26,31,29,02,05,14,23,21,,,,1.3,0.8,1.0*2D
1 000C0AB2 $GNGSA,A,3,211,212,213,,,,,,,,,,1.3,0.8,1.0*14
1 000C0B82 $GPGSV,4,1,13,29,73,057,47,31,62,240,48,25,44,105,46,26,41,294,47*70
1 000C0C52 $GPGSV,4,2,13,21,30,175,33,02,13,038,34,14,10,236,32,05,09,070,27*7E
1 000C0D25 $GPGSV,4,3,13,23,08,326,36,12,05,106,18,33,00,000,37,04,00,000,47*7C
1 000C0D88 $GPGSV,4,4,13,16,00,000,41*49
1 000C0E33 $BDGSV,1,1,03,211,76,073,40,212,21,052,35,213,20,042,31*6D
1 000C0F07 $GNRMC,124115.000,A,4906.1616,N,00202.3233,E,000.0,000.0,310518,,,A*76
1 000C0F6D >08|03: $GNRMC,124115.000,A,4906.1616,N,00202.3233,E,0.0,000.0,310518,,,A,111111001111<13
1 000C0FEE $GNVTG,000.0,T,,M,000.0,N,000.0,K,A*13
1 000C1027 $GNZDA,124115.000,31,05,2018,00,00*46
1 000C1088 $PSTI,20,0,1,1,0,A,0,1,3.70,100.00,-0.01,0.00*75
1 000C88F7 $GNGGA,124116.000,4906.1616,N,00202.3233,E,1,12,0.8,115.6,M,46.9,M,,0000*4A
1 000C898A $GNGLL,4906.1616,N,00202.3233,E,124116.000,A,A*4C
1 000C8A36 $GNGSA,A,3,25,26,31,29,02,05,14,23,21,,,,1.3,0.8,1.0*2D
1 000C8AC6 $GNGSA,A,3,211,212,213,,,,,,,,,,1.3,0.8,1.0*14
1 000C8B9C $GNRMC,124116.000,A,4906.1616,N,00202.3233,E,000.0,000.0,310518,,,A*75
1 000C8C02 >08|03: $GNRMC,124116.000,A,4906.1616,N,00202.3233,E,0.0,000.0,310518,,,A,111111001111<10
1 000C8C83 $GNVTG,000.0,T,,M,000.0,N,000.0,K,A*13
1 000C8CBB $GNZDA,124116.000,31,05,2018,00,00*45
1 000C8D22 $PSTI,20,0,1,1,0,A,0,1,3.70,100.00,-0.00,0.00*74
1 000D08E0 $GNGGA,124117.000,4906.1616,N,00202.3233,E,1,12,0.8,115.6,M,46.9,M,,0000*4B
1 000D097D $GNGLL,4906.1616,N,00202.3233,E,124117.000,A,A*4D
1 000D0A25 $GNGSA,A,3,25,26,31,29,02,05,14,23,21,,,,1.3,0.8,1.0*2D
1 000D0AB2 $GNGSA,A,3,211,212,213,,,,,,,,,,1.3,0.8,1.0*14
1 000D0B87 $GNRMC,124117.000,A,4906.1616,N,00202.3233,E,000.0,000.0,310518,,,A*74
1 000D0BED >08|03: $GNRMC,124117.000,A,4906.1616,N,00202.3233,E,0.0,000.0,310518,,,A,111111001111<11
1 000D0C6E $GNVTG,000.0,T,,M,000.0,N,000.0,K,A*13
1 000D0CA7 $GNZDA,124117.000,31,05,2018,00,00*44
1 000D0D05 $PSTI,20,0,1,1,0,A,0,1,3.70,100.00,0.01,0.00*58
1 000D88E3 $GNGGA,124118.000,4906.1616,N,00202.3233,E,1,12,0.8,115.6,M,46.9,M,,0000*44
1 000D897B $GNGLL,4906.1616,N,00202.3233,E,124118.000,A,A*42
1 000D8A28 $GNGSA,A,3,25,26,31,29,02,05,14,23,21,,,,1.3,0.8,1.0*2D
1 000D8AB2 $GNGSA,A,3,211,212,213,,,,,,,,,,1.3,0.8,1.0*14
1 000D8B83 $GPGSV,4,1,13,29,73,057,45,31,62,240,48,25,44,105,45,26,41,294,47*71
1 000D8C51 $GPGSV,4,2,13,21,30,175,31,02,13,038,30,14,10,236,30,05,09,070,29*74
1 000D8D22 $GPGSV,4,3,13,23,08,326,33,12,05,106,21,33,00,000,38,04,00,000,46*7D
1 000D8D85 $GPGSV,4,4,13,16,00,000,42*4A
1 000D8E33 $BDGSV,1,1,03,211,76,073,41,212,21,052,34,213,20,042,30*6C
1 000D8F08 $GNRMC,124118.000,A,4906.1616,N,00202.3233,E,000.0,000.0,310518,,,A*7B
1 000D8F6E >08|03: $GNRMC,124118.000,A,4906.1616,N,00202.3233,E,0.0,000.0,310518,,,A,111111001111<1E
1 000D8FEF $GNVTG,000.0,T,,M,000.0,N,000.0,K,A*13
1 000D9028 $GNZDA,124118.000,31,05,2018,00,00*4B
1 000D9089 $PSTI,20,0,1,1,0,A,0,1,3.70,100.00,-0.00,0.00*74
1 000E08F6 $GNGGA,124119.000,4906.1616,N,00202.3233,E,1,12,0.8,115.6,M,46.9,M,,0000*45
1 000E098A $GNGLL,4906.1616,N,00202.3233,E,124119.000,A,A*43
1 000E0A36 $GNGSA,A,3,25,26,31,29,02,05,14,23,21,,,,1.3,0.8,1.0*2D
1 000E0AC6 $GNGSA,A,3,211,212,213,,,,,,,,,,1.3,0.8,1.0*14
1 000E0B9B $GNRMC,124119.000,A,4906.1616,N,00202.3233,E,000.0,000.0,310518,,,A*7A
1 000E0C01 >08|03: $GNRMC,124119.000,A,4906.1616,N,00202.3233,E,0.0,000.0,310518,,,A,111111001111<1F
1 000E0C82 $GNVTG,000.0,T,,M,000.0,N,000.0,K,A*13
1 000E0CBB $GNZDA,124119.000,31,05,2018,00,00*4A
1 000E0D1C $PSTI,20,0,1,1,0,A,0,1,3.70,100.00,-0.00,0.00*74
1 000E88E0 $GNGGA,124120.000,4906.1616,N,00202.3233,E,1,12,0.8,115.6,M,46.9,M,,0000*4F
1 000E897A $GNGLL,4906.1616,N,00202.3233,E,124120.000,A,A*49
1 000E8A26 $GNGSA,A,3,25,26,31,29,02,05,14,23,21,,,,1.3,0.8,1.0*2D
1 000E8AB1 $GNGSA,A,3,211,212,213,,,,,,,,,,1.3,0.8,1.0*14
1 000E8B88 $GNRMC,124120.000,A,4906.1616,N,00202.3233,E,000.0,000.0,310518,,,A*70
1 000E8BEE >08|03: $GNRMC,124120.000,A,4906.1616,N,00202.3233,E,0.0,000.0,310518,,,A,111111001111<15
1 000E8C6F $GNVTG,000.0,T,,M,000.0,N,000.0,K,A*13
1 000E8CA8 $GNZDA,124120.000,31,05,2018,00,00*40
1 000E8D09 $PSTI,20,0,1,1,0,A,0,1,3.70,100.00,-0.02,0.00*76
1 000F08E1 $GNGGA,124121.000,4906.1616,N,00202.3233,E,1,12,0.8,115.6,M,46.9,M,,0000*4E
1 000F097A $GNGLL,4906.1616,N,00202.3233,E,124121.000,A,A*48
1 000F0A25 $GNGSA,A,3,25,26,31,29,02,05,14,23,21,,,,1.3,0.8,1.0*2D
1 000F0AB1 $GNGSA,A,3,211,212,213,,,,,,,,,,1.3,0.8,1.0*14
1 000F0B82 $GPGSV,4,1,13,29,73,057,45,31,62,240,47,25,44,105,45,26,41,294,48*71
1 000F0C51 $GPGSV,4,2,13,21,30,175,30,02,13,038,36,14,10,236,25,05,09,070,28*76
1 000F0D23 $GPGSV,4,3,13,23,08,326,32,12,05,106,20,33,00,000,38,04,00,000,45*7E
1 000F0D86 $GPGSV,4,4,13,16,00,000,38*47
1 000F0E35 $BDGSV,1,1,03,211,76,073,42,212,21,052,33,213,20,042,29*60
1 000F0F07 $GNRMC,124121.000,A,4906.1616,N,00202.3233,E,000.0,000.0,310518,,,A*71
1 000F0F6D >08|03: $GNRMC,124121.000,A,4906.1616,N,00202.3233,E,0.0,000.0,310518,,,A,111111001111<14
1 000F0FEE $GNVTG,000.0,T,,M,000.0,N,000.0,K,A*13
1 000F1027 $GNZDA,124121.000,31,05,2018,00,00*41
1 000F1087 $PSTI,20,0,1,1,0,A,0,1,3.70,100.00,-0.03,0.00*77
1 000F88E0 $GNGGA,124122.000,4906.1616,N,00202.3233,E,1,12,0.8,115.6,M,46.9,M,,0000*4D
1 000F897A $GNGLL,4906.1616,N,00202.3233,E,124122.000,A,A*4B
1 000F8A25 $GNGSA,A,3,25,26,31,29,02,05,14,23,21,,,,1.3,0.8,1.0*2D
1 000F8AB1 $GNGSA,A,3,211,212,213,,,,,,,,,,1.3,0.8,1.0*14
1 000F8B88 $GNRMC,124122.000,A,4906.1616,N,00202.3233,E,000.0,000.0,310518,,,A*72
1 000F8BEE >08|03: $GNRMC,124122.000,A,4906.1616,N,00202.3233,E,0.0,000.0,310518,,,A,111111001111<17
1 000F8C6F $GNVTG,000.0,T,,M,000.0,N,000.0,K,A*13
1 000F8CA8 $GNZDA,124122.000,31,05,2018,00,00*42
1 000F8D09 $PSTI,20,0,1,1,0,A,0,1,3.70,100.00,-0.02,0.00*76
1 00100B86 $GNGGA,124123.000,4906.1616,N,00202.3233,E,1,13,0.8,115.6,M,46.9,M,,0000*4D
1 00100C19 $GNGLL,4906.1616,N,00202.3233,E,124123.000,A,A*4A
1 00100CCB $GNGSA,A,3,25,26,31,29,02,16,05,14,23,21,,,1.3,0.8,1.0*2A
1 00100D5B $GNGSA,A,3,211,212,213,,,,,,,,,,1.3,0.8,1.0*14
1 00100E30 $GNRMC,124123.000,A,4906.1616,N,00202.3233,E,000.0,000.0,310518,,,A*73
1 00100E96 >08|03: $GNRMC,124123.000,A,4906.1616,N,00202.3233,E,0.0,000.0,310518,,,A,111111001111<16
1 00100F17 $GNVTG,000.0,T,,M,000.0,N,000.0,K,A*13
1 00100F50 $GNZDA,124123.000,31,05,2018,00,00*43
1 00100FAE $PSTI,20,0,1,1,0,A,0,1,3.70,100.00,0.01,0.00*58
1 001088E2 $GNGGA,124124.000,4906.1614,N,00202.3230,E,1,14,0.7,111.6,M,46.9,M,,0000*47
1 0010897F $GNGLL,4906.1614,N,00202.3230,E,124124.000,A,A*4C
1 00108A31 $GNGSA,A,3,25,26,31,29,02,16,12,05,14,23,21,,1.1,0.7,0.9*2C
1 00108AC0 $GNGSA,A,3,211,212,213,,,,,,,,,,1.1,0.7,0.9*11
1 00108B8E $GPGSV,4,1,13,29,73,057,45,31,62,240,48,04,56,298,46,25,44,105,45*7A
1 00108C5E $GPGSV,4,2,13,26,41,294,47,21,30,175,29,16,13,289,35,02,13,038,36*76
1 00108D36 $GPGSV,4,3,13,14,10,236,25,05,09,070,26,23,08,326,32,12,05,106,20*7B
1 00108D99 $GPGSV,4,4,13,33,00,000,38*40
1 00108E3E $BDGSV,1,1,03,211,76,073,41,212,21,052,34,213,20,042,28*65
1 00108F12 $GNRMC,124124.000,A,4906.1614,N,00202.3230,E,000.0,000.0,310518,,,A*75
1 00108F78 >08|03: $GNRMC,124124.000,A,4906.1614,N,00202.3230,E,0.0,000.0,310518,,,A,111111001111<10
1 00108FF9 $GNVTG,000.0,T,,M,000.0,N,000.0,K,A*13
1 00109032 $GNZDA,124124.000,31,05,2018,00,00*44
1 00109090 $PSTI,20,0,1,1,0,A,0,1,3.70,100.00,0.02,0.00*5B
1 001108E0 $GNGGA,124125.000,4906.1614,N,00202.3230,E,1,13,0.8,111.6,M,46.9,M,,0000*4E
1 0011097B $GNGLL,4906.1614,N,00202.3230,E,124125.000,A,A*4D
1 00110A2B $GNGSA,A,3,25,26,31,29,02,16,05,14,23,21,,,1.3,0.8,1.0*2A
1 00110AB7 $GNGSA,A,3,211,212,213,,,,,,,,,,1.3,0.8,1.0*14
1 00110B8E $GNRMC,124125.000,A,4906.1614,N,00202.3230,E,000.0,000.0,310518,,,A*74
1 00110BF5 >08|03: $GNRMC,124125.000,A,4906.1614,N,00202.3230,E,0.0,000.0,310518,,,A,111111001111<11
1 00110C76 $GNVTG,000.0,T,,M,000.0,N,000.0,K,A*13
1 00110CAE $GNZDA,124125.000,31,05,2018,00,00*45
1 00110D0C $PSTI,20,0,1,1,0,A,0,1,3.70,100.00,0.01,0.00*58
1 001188E1 $GNGGA,124126.000,4906.1614,N,00202.3230,E,1,14,0.7,111.6,M,46.9,M,,0000*45
1 0011897B $GNGLL,4906.1614,N,00202.3230,E,124126.000,A,A*4E
1 00118A32 $GNGSA,A,3,25,26,31,29,02,16,12,05,14,23,21,,1.1,0.7,0.9*2C
1 00118ABE $GNGSA,A,3,211,212,213,,,,,,,,,,1.1,0.7,0.9*11
1 00118B94 $GNRMC,124126.000,A,4906.1614,N,00202.3230,E,000.0,000.0,310518,,,A*77
1 00118BFA >08|03: $GNRMC,124126.000,A,4906.1614,N,00202.3230,E,0.0,000.0,310518,,,A,111111001111<12
1 00118C7B $GNVTG,000.0,T,,M,000.0,N,000.0,K,A*13
1 00118CB4 $GNZDA,124126.000,31,05,2018,00,00*46
1 00118D13 $PSTI,20,0,1,1,0,A,0,1,3.70,100.00,0.02,0.00*5B
1 001208E2 $GNGGA,124127.000,4906.1614,N,00202.3230,E,1,14,0.7,111.6,M,46.9,M,,0000*44
1 0012097A $GNGLL,4906.1614,N,00202.3230,E,124127.000,A,A*4F
1 00120A31 $GNGSA,A,3,25,26,31,29,02,16,12,05,14,23,21,,1.1,0.7,0.9*2C
1 00120ABD $GNGSA,A,3,211,212,213,,,,,,,,,,1.1,0.7,0.9*11
1 00120B8E $GPGSV,4,1,13,29,73,057,46,31,62,240,46,04,56,298,47,25,44,105,42*71
1 00120C5C $GPGSV,4,2,13,26,41,294,48,21,30,175,25,16,13,289,36,02,13,038,33*73
1 00120D34 $GPGSV,4,3,13,14,10,236,29,05,09,070,28,23,08,326,33,12,05,106,22*7A
1 00120D98 $GPGSV,4,4,13,33,00,000,37*4F
1 00120E3E $BDGSV,1,1,03,211,76,073,40,212,21,052,33,213,20,042,30*6A
1 00120F14 $GNRMC,124127.000,A,4906.1614,N,00202.3230,E,000.0,000.0,310518,,,A*76
1 00120F7A >08|03: $GNRMC,124127.000,A,4906.1614,N,00202.3230,E,0.0,000.0,310518,,,A,111111001111<13
1 00120FFB $GNVTG,000.0,T,,M,000.0,N,000.0,K,A*13
1 00121033 $GNZDA,124127.000,31,05,2018,00,00*47
1 00121090 $PSTI,20,0,1,1,0,A,0,1,3.70,100.00,0.00,0.00*59
1 001288E0 $GNGGA,124128.000,4906.1614,N,00202.3230,E,1,14,0.7,111.6,M,46.9,M,,0000*4B
1 00128983 $GNGLL,4906.1614,N,00202.3230,E,124128.000,A,A*40
1 00128A31 $GNGSA,A,3,25,26,31,29,02,16,12,05,14,23,21,,1.1,0.7,0.9*2C
1 00128ABD $GNGSA,A,3,211,212,213,,,,,,,,,,1.1,0.7,0.9*11
1 00128B94 $GNRMC,124128.000,A,4906.1614,N,00202.3230,E,000.0,000.0,310518,,,A*79
1 00128BFA >08|03: $GNRMC,124128.000,A,4906.1614,N,00202.3230,E,0.0,000.0,310518,,,A,111111001111<1C
1 00128C7B $GNVTG,000.0,T,,M,000.0,N,000.0,K,A*13
1 00128CB4 $GNZDA,124128.000,31,05,2018,00,00*48
1 00128D12 $PSTI,20,0,1,1,0,A,0,1,3.70,100.00,0.01,0.00*58
1 001308E0 $GNGGA,124129.000,4906.1614,N,00202.3230,E,1,14,0.7,111.6,M,46.9,M,,0000*4A
1 0013097A $GNGLL,4906.1614,N,00202.3230,E,124129.000,A,A*41
1 00130A31 $GNGSA,A,3,25,26,31,29,02,16,12,05,14,23,21,,1.1,0.7,0.9*2C
1 00130ABD $GNGSA,A,3,211,212,213,,,,,,,,,,1.1,0.7,0.9*11
1 00130B94 $GNRMC,124129.000,A,4906.1614,N,00202.3230,E,000.0,000.0,310518,,,A*78
1 00130BFA >08|03: $GNRMC,124129.000,A,4906.1614,N,00202.3230,E,0.0,000.0,310518,,,A,111111001111<1D
1 00130C7B $GNVTG,000.0,T,,M,000.0,N,000.0,K,A*13
1 00130CB4 $GNZDA,124129.000,31,05,2018,00,00*49
1 00130D15 $PSTI,20,0,1,1,0,A,0,1,3.70,100.00,-0.01,0.00*75
1 001388E7 $GNGGA,124130.000,4906.1614,N,00202.3230,E,1,13,0.8,111.6,M,46.9,M,,0000*4A
1 0013897C $GNGLL,4906.1614,N,00202.3230,E,124130.000,A,A*49
1 00138A2C $GNGSA,A,3,25,26,31,29,02,16,05,14,23,21,,,1.3,0.8,1.0*2A
1 00138AB9 $GNGSA,A,3,211,212,213,,,,,,,,,,1.3,0.8,1.0*14
1 00138B8E $GPGSV,4,1,13,29,73,057,45,31,62,240,46,04,56,298,47,25,44,105,43*73
1 00138C59 $GPGSV,4,2,13,26,41,294,46,21,30,175,29,16,13,289,40,02,13,038,28*7A
1 00138D2B $GPGSV,4,3,13,14,10,236,34,05,09,070,28,23,08,326,39,12,05,106,21*7F
1 00138D8F $GPGSV,4,4,13,33,00,000,38*40
1 00138E3A $BDGSV,1,1,03,211,76,073,39,212,21,053,32,213,20,042,29*6C
1 00138F0E $GNRMC,124130.000,A,4906.1614,N,00202.3230,E,000.0,000.0,310518,,,A*70
1 00138F74 >08|03: $GNRMC,124130.000,A,4906.1614,N,00202.3230,E,0.0,000.0,310518,,,A,111111001111<15
1 00138FF5 $GNVTG,000.0,T,,M,000.0,N,000.0,K,A*13
1 0013902E $GNZDA,124130.000,31,05,2018,00,00*41
1 0013908B $PSTI,20,0,1,1,0,A,0,1,3.70,100.00,0.02,0.00*5B
1 001408E1 $GNGGA,124131.000,4906.1614,N,00202.3230,E,1,13,0.8,111.6,M,46.9,M,,0000*4B
1 0014097C $GNGLL,4906.1614,N,00202.3230,E,124131.000,A,A*48
1 00140A2D $GNGSA,A,3,25,26,31,29,02,16,05,14,23,21,,,1.3,0.8,1.0*2A
1 00140AB8 $GNGSA,A,3,211,212,213,,,,,,,,,,1.3,0.8,1.0*14
1 00140B8F $GNRMC,124131.000,A,4906.1614,N,00202.3230,E,000.0,000.0,310518,,,A*71
1 00140BF5 >08|03: $GNRMC,124131.000,A,4906.1614,N,00202.3230,E,0.0,000.0,310518,,,A,111111001111<14
1 00140C77 $GNVTG,000.0,T,,M,000.0,N,000.0,K,A*13
1 00140CAF $GNZDA,124131.000,31,05,2018,00,00*40
1 00140D0F $PSTI,20,0,1,1,0,A,0,1,3.70,100.00,0.01,0.00*58
1 001488E0 $GNGGA,124132.000,4906.1614,N,00202.3230,E,1,14,0.7,111.6,M,46.9,M,,0000*40
1 0014897B $GNGLL,4906.1614,N,00202.3230,E,124132.000,A,A*4B
1 00148A33 $GNGSA,A,3,25,26,31,29,02,16,12,05,14,23,21,,1.1,0.7,0.9*2C
1 00148ABE $GNGSA,A,3,211,212,213,,,,,,,,,,1.1,0.7,0.9*11
1 00148B95 $GNRMC,124132.000,A,4906.1614,N,00202.3230,E,000.0,000.0,310518,,,A*72
1 00148BFB >08|03: $GNRMC,124132.000,A,4906.1614,N,00202.3230,E,0.0,000.0,310518,,,A,111111001111<17
1 00148C7C $GNVTG,000.0,T,,M,000.0,N,000.0,K,A*13
1 00148CB5 $GNZDA,124132.000,31,05,2018,00,00*43
1 00148D15 $PSTI,20,0,1,1,0,A,0,1,3.70,100.00,0.00,0.00*59
1 001508E3 $GNGGA,124133.000,4906.1614,N,00202.3230,E,1,13,0.8,111.6,M,46.9,M,,0000*49
1 0015097C $GNGLL,4906.1614,N,00202.3230,E,124133.000,A,A*4A
1 00150A2D $GNGSA,A,3,25,26,31,29,02,16,05,14,23,21,,,1.3,0.8,1.0*2A
1 00150AB8 $GNGSA,A,3,211,212,213,,,,,,,,,,1.3,0.8,1.0*14
1 00150B8C $GPGSV,4,1,13,29,73,057,46,31,62,240,46,04,56,298,46,25,44,105,43*71
1 00150C58 $GPGSV,4,2,13,26,41,294,46,33,31,203,37,21,30,175,24,16,13,289,39*7F
1 00150D2B $GPGSV,4,3,13,02,13,038,32,14,10,236,33,05,09,070,29,23,08,326,39*71
1 00150D8F $GPGSV,4,4,13,12,05,106,22*4A
1 00150E3A $BDGSV,1,1,03,211,76,073,38,212,21,053,30,213,20,042,25*63
1 00150F0E $GNRMC,124133.000,A,4906.1614,N,00202.3230,E,000.0,000.0,310518,,,A*73
1 00150F74 >08|03: $GNRMC,124133.000,A,4906.1614,N,00202.3230,E,0.0,000.0,310518,,,A,111111001111<16
1 00150FF5 $GNVTG,000.0,T,,M,000.0,N,000.0,K,A*13
1 0015102E $GNZDA,124133.000,31,05,2018,00,00*42
1 0015108B $PSTI,20,0,1,1,0,A,0,1,3.70,100.00,0.00,0.00*59
1 001588E1 $GNGGA,124134.000,4906.1614,N,00202.3230,E,1,13,0.8,111.6,M,46.9,M,,0000*4E
1 0015897B $GNGLL,4906.1614,N,00202.3230,E,124134.000,A,A*4D
1 00158A2D $GNGSA,A,3,25,26,31,29,02,16,05,14,23,21,,,1.3,0.8,1.0*2A
1 00158AB9 $GNGSA,A,3,211,212,213,,,,,,,,,,1.3,0.8,1.0*14
1 00158B90 $GNRMC,124134.000,A,4906.1614,N,00202.3230,E,000.0,000.0,310518,,,A*74
1 00158BF6 >08|03: $GNRMC,124134.000,A,4906.1614,N,00202.3230,E,0.0,000.0,310518,,,A,111111001111<11
1 00158C77 $GNVTG,000.0,T,,M,000.0,N,000.0,K,A*13
1 00158CB0 $GNZDA,124134.000,31,05,2018,00,00*45
1 00158D12 $PSTI,20,0,1,1,0,A,0,1,3.70,100.00,-0.01,0.00*75
1 00160B94 $GNGGA,124135.000,4906.1614,N,00202.3230,E,1,13,0.8,111.6,M,46.9,M,,0000*4F
1 00160C2B $GNGLL,4906.1614,N,00202.3230,E,124135.000,A,A*4C
1 00160CE1 $GNGSA,A,3,25,26,31,29,02,16,05,14,23,21,,,1.3,0.8,1.0*2A
1 00160D69 $GNGSA,A,3,211,212,213,,,,,,,,,,1.3,0.8,1.0*14
1 00160E40 $GNRMC,124135.000,A,4906.1614,N,00202.3230,E,000.0,000.0,310518,,,A*75
1 00160EA7 >08|03: $GNRMC,124135.000,A,4906.1614,N,00202.3230,E,0.0,000.0,310518,,,A,111111001111<10
1 00160F28 $GNVTG,000.0,T,,M,000.0,N,000.0,K,A*13
1 00160F60 $GNZDA,124135.000,31,05,2018,00,00*44
1 00160FBD $PSTI,20,0,1,1,0,A,0,1,3.70,100.00,0.01,0.00*58
1 00168B95 $GNGGA,124136.000,4906.1614,N,00202.3230,E,2,13,0.8,111.6,M,46.9,M,,0000*4F
1 00168C2C $GNGLL,4906.1614,N,00202.3230,E,124136.000,A,D*4A
1 00168CE4 $GNGSA,A,3,25,26,31,29,02,16,05,14,23,21,,,1.3,0.8,1.0*2A
1 00168D69 $GNGSA,A,3,211,212,213,,,,,,,,,,1.3,0.8,1.0*14
1 00168E3B $GPGSV,4,1,13,29,73,057,44,31,62,240,46,04,56,298,46,25,44,105,42*72
1 00168F09 $GPGSV,4,2,13,26,41,294,46,33,31,203,37,21,30,175,28,16,13,290,41*74
1 00168FDA $GPGSV,4,3,13,02,13,038,29,14,10,236,32,05,09,070,29,23,08,326,40*74
1 0016903D $GPGSV,4,4,13,12,04,106,21*48
1 001690E9 $BDGSV,1,1,03,211,76,073,36,212,21,053,32,213,20,042,25*6F
1 001691C1 $GNRMC,124136.000,A,4906.1614,N,00202.3230,E,000.0,000.0,310518,,,D*73
1 00169227 >08|03: $GNRMC,124136.000,A,4906.1614,N,00202.3230,E,0.0,000.0,310518,,,D,111111001111<16
1 001692A8 $GNVTG,000.0,T,,M,000.0,N,000.0,K,D*16
1 001692E0 $GNZDA,124136.000,31,05,2018,00,00*47
1 00169341 $PSTI,20,0,1,1,0,A,0,1,3.70,100.00,-0.01,0.00*75
1 001708F7 $GNGGA,124137.000,4906.1614,N,00202.3230,E,2,13,0.8,111.6,M,46.9,M,,0000*4E
1 0017098D $GNGLL,4906.1614,N,00202.3230,E,124137.000,A,D*4B
1 00170A3C $GNGSA,A,3,25,26,31,29,02,16,05,14,23,21,,,1.3,0.8,1.0*2A
1 00170ACE $GNGSA,A,3,211,212,213,,,,,,,,,,1.3,0.8,1.0*14
1 00170BA3 $GNRMC,124137.000,A,4906.1614,N,00202.3230,E,000.0,000.0,310518,,,D*72
1 00170C09 >08|03: $GNRMC,124137.000,A,4906.1614,N,00202.3230,E,0.0,000.0,310518,,,D,111111001111<17
1 00170C8A $GNVTG,000.0,T,,M,000.0,N,000.0,K,D*16
1 00170CC3 $GNZDA,124137.000,31,05,2018,00,00*46
1 00170D23 $PSTI,20,0,1,1,0,A,0,1,3.70,100.00,-0.01,0.00*75
1 001788F8 $GNGGA,124138.000,4906.1614,N,00202.3230,E,2,13,0.8,111.6,M,46.9,M,,0000*41
1 00178992 $GNGLL,4906.1614,N,00202.3230,E,124138.000,A,D*44
1 00178A43 $GNGSA,A,3,25,26,31,29,02,16,05,14,23,21,,,1.3,0.8,1.0*2A
1 00178ACE $GNGSA,A,3,211,212,213,,,,,,,,,,1.3,0.8,1.0*14
1 00178BA3 $GNRMC,124138.000,A,4906.1614,N,00202.3230,E,000.0,000.0,310518,,,D*7D
1 00178C09 >08|03: $GNRMC,124138.000,A,4906.1614,N,00202.3230,E,0.0,000.0,310518,,,D,111111001111<18
1 00178C8A $GNVTG,000.0,T,,M,000.0,N,000.0,K,D*16
1 00178CC3 $GNZDA,124138.000,31,05,2018,00,00*49
1 00178D23 $PSTI,20,0,1,1,0,A,0,1,3.70,100.00,-0.00,0.00*74
1 001808F9 $GNGGA,124139.000,4906.1614,N,00202.3230,E,2,13,0.8,111.6,M,46.9,M,,0000*40
1 0018098C $GNGLL,4906.1614,N,00202.3230,E,124139.000,A,D*45
1 00180A3D $GNGSA,A,3,25,26,31,29,02,16,05,14,23,21,,,1.3,0.8,1.0*2A
1 00180ACE $GNGSA,A,3,211,212,213,,,,,,,,,,1.3,0.8,1.0*14
1 00180B9D $GPGSV,4,1,13,29,73,057,44,31,62,240,46,04,56,298,46,25,44,105,44*74
1 00180C6D $GPGSV,4,2,13,26,41,294,46,33,31,203,36,21,30,175,29,16,13,290,41*74
1 00180D3E $GPGSV,4,3,13,02,13,038,33,14,10,236,33,05,09,070,31,23,08,326,41*76
1 00180DA2 $GPGSV,4,4,13,12,04,106,20*49
1 00180E4E $BDGSV,1,1,03,211,76,073,37,212,21,053,32,213,20,042,24*6F
1 00180F24 $GNRMC,124139.000,A,4906.1614,N,00202.3230,E,000.0,000.0,310518,,,D*7C
1 00180F8A >08|03: $GNRMC,124139.000,A,4906.1614,N,00202.3230,E,0.0,000.0,310518,,,D,111111001111<19
1 0018100B $GNVTG,000.0,T,,M,000.0,N,000.0,K,D*16
1 00181044 $GNZDA,124139.000,31,05,2018,00,00*48
1 001810A5 $PSTI,20,0,1,1,0,A,0,1,3.70,100.00,-0.01,0.00*75
1 001888F8 $GNGGA,124140.000,4906.1614,N,00202.3230,E,2,13,0.8,111.6,M,46.9,M,,0000*4E
1 0018898E $GNGLL,4906.1614,N,00202.3230,E,124140.000,A,D*4B
1 00188A3E $GNGSA,A,3,25,26,31,29,02,16,05,14,23,21,,,1.3,0.8,1.0*2A
1 00188ACE $GNGSA,A,3,211,212,213,,,,,,,,,,1.3,0.8,1.0*14
1 00188BA3 $GNRMC,124140.000,A,4906.1614,N,00202.3230,E,000.0,000.0,310518,,,D*72
1 00188C09 >08|03: $GNRMC,124140.000,A,4906.1614,N,00202.3230,E,0.0,000.0,310518,,,D,111111001111<17
1 00188C8A $GNVTG,000.0,T,,M,000.0,N,000.0,K,D*16
1 00188CC3 $GNZDA,124140.000,31,05,2018,00,00*46
1 00188D24 $PSTI,20,0,1,1,0,A,0,1,3.70,100.00,-0.01,0.00*75
1 001908E2 $GNGGA,124141.000,4906.1614,N,00202.3230,E,2,13,0.8,111.6,M,46.9,M,,0000*4F
1 0019097D $GNGLL,4906.1614,N,00202.3230,E,124141.000,A,D*4A
1 00190A2D $GNGSA,A,3,25,26,31,29,02,16,05,14,23,21,,,1.3,0.8,1.0*2A
1 00190AB9 $GNGSA,A,3,211,212,213,,,,,,,,,,1.3,0.8,1.0*14
1 00190B8F $GNRMC,124141.000,A,4906.1614,N,00202.3230,E,000.0,000.0,310518,,,D*73
1 00190BF5 >08|03: $GNRMC,124141.000,A,4906.1614,N,00202.3230,E,0.0,000.0,310518,,,D,111111001111<16
1 00190C76 $GNVTG,000.0,T,,M,000.0,N,000.0,K,D*16
1 00190CAE $GNZDA,124141.000,31,05,2018,00,00*47
1 00190D13 $PSTI,20,0,1,1,0,A,0,1,3.70,100.00,-0.02,0.00*76
1 001988E9 $GNGGA,124142.000,4906.1614,N,00202.3230,E,2,13,0.8,111.6,M,46.9,M,,0000*4C
1 0019897F $GNGLL,4906.1614,N,00202.3230,E,124142.000,A,D*49
1 00198A30 $GNGSA,A,3,25,26,31,29,02,16,05,14,23,21,,,1.3,0.8,1.0*2A
1 00198ABB $GNGSA,A,3,211,212,213,,,,,,,,,,1.3,0.8,1.0*14
1 00198B8F $GPGSV,4,1,13,29,73,057,45,31,62,240,45,04,56,298,47,25,44,105,43*70
1 00198C5F $GPGSV,4,2,13,26,41,294,47,33,31,203,35,21,30,175,25,16,13,290,38*74
1 00198D2F $GPGSV,4,3,13,02,13,038,31,14,10,236,29,05,09,070,29,23,08,326,33*73
1 00198D92 $GPGSV,4,4,13,12,04,106,19*43
1 00198E3F $BDGSV,1,1,03,211,76,073,38,212,21,053,32,213,20,042,24*60
1 00198F17 $GNRMC,124142.000,A,4906.1614,N,00202.3230,E,000.0,000.0,310518,,,D*70
1 00198F7D >08|03: $GNRMC,124142.000,A,4906.1614,N,00202.3230,E,0.0,000.0,310518,,,D,111111001111<15
1 00198FFE $GNVTG,000.0,T,,M,000.0,N,000.0,K,D*16
1 00199037 $GNZDA,124142.000,31,05,2018,00,00*44
1 0019909A $PSTI,20,0,1,1,0,A,0,1,3.70,100.00,-0.01,0.00*75
1 001A08E2 $GNGGA,124143.000,4906.1614,N,00202.3230,E,2,13,0.8,111.6,M,46.9,M,,0000*4D
1 001A097D $GNGLL,4906.1614,N,00202.3230,E,124143.000,A,D*48
1 001A0A2E $GNGSA,A,3,25,26,31,29,02,16,05,14,23,21,,,1.3,0.8,1.0*2A
1 001A0AB9 $GNGSA,A,3,211,212,213,,,,,,,,,,1.3,0.8,1.0*14
1 001A0B8F $GNRMC,124143.000,A,4906.1614,N,00202.3230,E,000.0,000.0,310518,,,D*71
1 001A0BF6 >08|03: $GNRMC,124143.000,A,4906.1614,N,00202.3230,E,0.0,000.0,310518,,,D,111111001111<14
1 001A0C77 $GNVTG,000.0,T,,M,000.0,N,000.0,K,D*16
1 001A0CAF $GNZDA,124143.000,31,05,2018,00,00*45
1 001A0D10 $PSTI,20,0,1,1,0,A,0,1,3.70,100.00,0.00,0.00*59
1 001A88F9 $GNGGA,124144.000,4906.1614,N,00202.3230,E,2,12,0.8,111.6,M,46.9,M,,0000*4B
1 001A898D $GNGLL,4906.1614,N,00202.3230,E,124144.000,A,D*4F
1 001A8A41 $GNGSA,A,3,25,26,31,29,02,16,05,14,23,21,,,1.3,0.8,1.0*2A
1 001A8AC6 $GNGSA,A,3,211,212,,,,,,,,,,,1.3,0.8,1.0*24
1 001A8B9B $GNRMC,124144.000,A,4906.1614,N,00202.3230,E,000.0,000.0,310518,,,D*76
1 001A8C01 >08|03: $GNRMC,124144.000,A,4906.1614,N,00202.3230,E,0.0,000.0,310518,,,D,111111001111<13
1 001A8C82 $GNVTG,000.0,T,,M,000.0,N,000.0,K,D*16
1 001A8CBB $GNZDA,124144.000,31,05,2018,00,00*42
1 001A8D1C $PSTI,20,0,1,1,0,A,0,1,3.70,100.00,-0.00,0.00*74
1 001B08FA $GNGGA,124145.000,4906.1614,N,00202.3230,E,2,12,0.8,111.6,M,46.9,M,,0000*4A
1 001B098F $GNGLL,4906.1614,N,00202.3230,E,124145.000,A,D*4E
1 001B0A3E $GNGSA,A,3,25,26,31,29,02,16,05,14,23,21,,,1.3,0.8,1.0*2A
1 001B0AC6 $GNGSA,A,3,211,212,,,,,,,,,,,1.3,0.8,1.0*24
1 001B0B96 $GPGSV,4,1,13,29,73,057,47,31,62,240,45,04,56,298,46,25,44,105,43*73
1 001B0C66 $GPGSV,4,2,13,26,41,294,46,33,31,203,37,21,30,175,27,16,13,290,38*75
1 001B0D35 $GPGSV,4,3,13,02,13,038,30,14,10,236,32,05,09,070,28,23,08,326,37*7D
1 001B0D99 $GPGSV,4,4,13,12,04,106,19*43
1 001B0E46 $BDGSV,1,1,03,211,76,073,37,212,21,053,27,213,20,042,23*6C
1 001B0F1C $GNRMC,124145.000,A,4906.1614,N,00202.3230,E,000.0,000.0,310518,,,D*77
1 001B0F82 >08|03: $GNRMC,124145.000,A,4906.1614,N,00202.3230,E,0.0,000.0,310518,,,D,111111001111<12
1 001B1003 $GNVTG,000.0,T,,M,000.0,N,000.0,K,D*16
1 001B103C $GNZDA,124145.000,31,05,2018,00,00*43
1 001B109E $PSTI,20,0,1,1,0,A,0,1,3.70,100.00,-0.02,0.00*76
1 001B88F9 $GNGGA,124146.000,4906.1614,N,00202.3230,E,2,12,0.8,111.6,M,46.9,M,,0000*49
1 001B898E $GNGLL,4906.1614,N,00202.3230,E,124146.000,A,D*4D
1 001B8A3F $GNGSA,A,3,25,26,31,29,02,16,05,14,23,21,,,1.3,0.8,1.0*2A
1 001B8AC6 $GNGSA,A,3,211,212,,,,,,,,,,,1.3,0.8,1.0*24
1 001B8B9B $GNRMC,124146.000,A,4906.1614,N,00202.3230,E,000.0,000.0,310518,,,D*74
1 001B8C02 >08|03: $GNRMC,124146.000,A,4906.1614,N,00202.3230,E,0.0,000.0,310518,,,D,111111001111<11
1 001B8C83 $GNVTG,000.0,T,,M,000.0,N,000.0,K,D*16
1 001B8CBB $GNZDA,124146.000,31,05,2018,00,00*40
1 001B8D19 $PSTI,20,0,1,1,0,A,0,1,3.70,100.00,0.01,0.00*58
1 001C08FA $GNGGA,124147.000,4906.1614,N,00202.3230,E,2,12,0.8,111.6,M,46.9,M,,0000*48
1 001C098E $GNGLL,4906.1614,N,00202.3230,E,124147.000,A,D*4C
1 001C0A3F $GNGSA,A,3,25,26,31,29,02,16,05,14,23,21,,,1.3,0.8,1.0*2A
1 001C0AC6 $GNGSA,A,3,211,212,,,,,,,,,,,1.3,0.8,1.0*24
1 001C0B9C $GNRMC,124147.000,A,4906.1614,N,00202.3230,E,000.0,000.0,310518,,,D*75
1 001C0C02 >08|03: $GNRMC,124147.000,A,4906.1614,N,00202.3230,E,0.0,000.0,310518,,,D,111111001111<10
1 001C0C83 $GNVTG,000.0,T,,M,000.0,N,000.0,K,D*16
1 001C0CBB $GNZDA,124147.000,31,05,2018,00,00*41
1 001C0D1C $PSTI,20,0,1,1,0,A,0,1,3.70,100.00,-0.01,0.00*75
1 001C8B97 $GNGGA,124148.000,4906.1614,N,00202.3230,E,2,12,0.8,111.6,M,46.9,M,,0000*47
1 001C8C2D $GNGLL,4906.1614,N,00202.3230,E,124148.000,A,D*43
1 001C8CE8 $GNGSA,A,3,25,26,31,29,02,16,05,14,23,21,,,1.3,0.8,1.0*2A
1 001C8D62 $GNGSA,A,3,211,212,,,,,,,,,,,1.3,0.8,1.0*24
1 001C8E35 $GPGSV,4,1,13,29,73,057,47,31,62,240,46,04,56,298,46,25,44,105,44*77
1 001C8F02 $GPGSV,4,2,13,26,41,294,47,33,31,203,37,21,30,175,25,16,13,290,37*79
1 001C8FD3 $GPGSV,4,3,13,02,13,038,27,14,10,236,27,05,09,070,28,23,08,326,35*7D
1 001C9036 $GPGSV,4,4,13,12,04,106,17*4D
1 001C90E2 $BDGSV,1,1,03,211,76,072,37,212,21,053,29,213,20,042,20*60
1 001C91B7 $GNRMC,124148.000,A,4906.1614,N,00202.3230,E,000.0,000.0,310518,,,D*7A
1 001C921E >08|03: $GNRMC,124148.000,A,4906.1614,N,00202.3230,E,0.0,000.0,310518,,,D,111111001111<1F
1 001C929F $GNVTG,000.0,T,,M,000.0,N,000.0,K,D*16
1 001C92D7 $GNZDA,124148.000,31,05,2018,00,00*4E
1 001C933A $PSTI,20,0,1,1,0,A,0,1,3.70,100.00,-0.00,0.00*74
1 001D0B95 $GNGGA,124149.000,4906.1614,N,00202.3230,E,2,12,0.8,111.6,M,46.9,M,,0000*46
1 001D0C2C $GNGLL,4906.1614,N,00202.3230,E,124149.000,A,D*42
1 001D0CE2 $GNGSA,A,3,25,26,31,29,02,16,05,14,23,21,,,1.3,0.8,1.0*2A
1 001D0D62 $GNGSA,A,3,211,212,,,,,,,,,,,1.3,0.8,1.0*24
1 001D0E3A $GNRMC,124149.000,A,4906.1614,N,00202.3230,E,000.0,000.0,310518,,,D*7B
1 001D0EA0 >08|03: $GNRMC,124149.000,A,4906.1614,N,00202.3230,E,0.0,000.0,310518,,,D,111111001111<1E
1 001D0F21 $GNVTG,000.0,T,,M,000.0,N,000.0,K,D*16
1 001D0F5A $GNZDA,124149.000,31,05,2018,00,00*4F
1 001D0FB9 $PSTI,20,0,1,1,0,A,0,1,3.70,100.00,-0.00,0.00*74
1 001D88FA $GNGGA,124150.000,4906.1614,N,00202.3230,E,2,12,0.8,111.6,M,46.9,M,,0000*4E
1 001D8991 $GNGLL,4906.1614,N,00202.3230,E,124150.000,A,D*4A
1 001D8A3F $GNGSA,A,3,25,26,31,29,02,16,05,14,23,21,,,1.3,0.8,1.0*2A
1 001D8AC6 $GNGSA,A,3,211,212,,,,,,,,,,,1.3,0.8,1.0*24
1 001D8B9C $GNRMC,124150.000,A,4906.1614,N,00202.3230,E,000.0,000.0,310518,,,D*73
1 001D8C02 >08|03: $GNRMC,124150.000,A,4906.1614,N,00202.3230,E,0.0,000.0,310518,,,D,111111001111<16
1 001D8C83 $GNVTG,000.0,T,,M,000.0,N,000.0,K,D*16
1 001D8CBC $GNZDA,124150.000,31,05,2018,00,00*47
1 001D8D1C $PSTI,20,0,1,1,0,A,0,1,3.70,100.00,-0.01,0.00*75
1 001E08FA $GNGGA,124151.000,4906.1614,N,00202.3230,E,2,12,0.8,111.6,M,46.9,M,,0000*4F
1 001E098D $GNGLL,4906.1614,N,00202.3230,E,124151.000,A,D*4B
1 001E0A3F $GNGSA,A,3,25,26,31,29,02,16,05,14,23,21,,,1.3,0.8,1.0*2A
1 001E0AC7 $GNGSA,A,3,211,212,,,,,,,,,,,1.3,0.8,1.0*24
1 001E0B96 $GPGSV,4,1,13,29,73,057,46,31,62,240,46,04,56,298,46,25,44,105,43*71
1 001E0C66 $GPGSV,4,2,13,26,41,294,47,33,31,203,37,21,30,175,25,16,13,290,38*76
1 001E0D36 $GPGSV,4,3,13,02,12,038,28,14,10,236,29,05,09,070,29,23,08,326,36*7F
1 001E0D99 $GPGSV,4,4,13,12,04,106,17*4D
1 001E0E46 $BDGSV,1,1,03,211,76,072,37,212,21,053,26,213,20,042,19*65
1 001E0F1D $GNRMC,124151.000,A,4906.1614,N,00202.3230,E,000.0,000.0,310518,,,D*72
1 001E0F83 >08|03: $GNRMC,124151.000,A,4906.1614,N,00202.3230,E,0.0,000.0,310518,,,D,111111001111<17
1 001E1004 $GNVTG,000.0,T,,M,000.0,N,000.0,K,D*16
1 001E103D $GNZDA,124151.000,31,05,2018,00,00*46
1 001E109E $PSTI,20,0,1,1,0,A,0,1,3.70,100.00,-0.01,0.00*75
1 001E88FA $GNGGA,124152.000,4906.1614,N,00202.3230,E,2,13,0.8,111.6,M,46.9,M,,0000*4D
1 001E898F $GNGLL,4906.1614,N,00202.3230,E,124152.000,A,D*48
1 001E8A3E $GNGSA,A,3,25,26,31,29,02,16,05,14,23,21,,,1.3,0.8,1.0*2A
1 001E8ACF $GNGSA,A,3,211,212,213,,,,,,,,,,1.3,0.8,1.0*14
1 001E8BA4 $GNRMC,124152.000,A,4906.1614,N,00202.3230,E,000.0,000.0,310518,,,D*71
1 001E8C0A >08|03: $GNRMC,124152.000,A,4906.1614,N,00202.3230,E,0.0,000.0,310518,,,D,111111001111<14
1 001E8C8C $GNVTG,000.0,T,,M,000.0,N,000.0,K,D*16
1 001E8CC4 $GNZDA,124152.000,31,05,2018,00,00*45
1 001E8D25 $PSTI,20,0,1,1,0,A,0,1,3.70,100.00,-0.01,0.00*75
1 001F08E3 $GNGGA,124153.000,4906.1614,N,00202.3230,E,2,12,0.8,111.6,M,46.9,M,,0000*4D
1 001F097D $GNGLL,4906.1614,N,00202.3230,E,124153.000,A,D*49
1 001F0A2F $GNGSA,A,3,25,26,31,29,02,16,05,14,23,21,,,1.3,0.8,1.0*2A
1 001F0AB1 $GNGSA,A,3,211,212,,,,,,,,,,,1.3,0.8,1.0*24
1 001F0B89 $GNRMC,124153.000,A,4906.1614,N,00202.3230,E,000.0,000.0,310518,,,D*70
1 001F0BEF >08|03: $GNRMC,124153.000,A,4906.1614,N,00202.3230,E,0.0,000.0,310518,,,D,111111001111<15
1 001F0C70 $GNVTG,000.0,T,,M,000.0,N,000.0,K,D*16
1 001F0CA9 $GNZDA,124153.000,31,05,2018,00,00*44
1 001F0D0B $PSTI,20,0,1,1,0,A,0,1,3.70,100.00,-0.00,0.00*74
1 001F88E4 $GNGGA,124154.000,4906.1614,N,00202.3230,E,2,13,0.8,111.6,M,46.9,M,,0000*4B
1 001F897D $GNGLL,4906.1614,N,00202.3230,E,124154.000,A,D*4E
1 001F8A30 $GNGSA,A,3,25,26,31,29,02,16,05,14,23,21,,,1.3,0.8,1.0*2A
1 001F8ABA $GNGSA,A,3,211,212,213,,,,,,,,,,1.3,0.8,1.0*14
1 001F8B8C $GPGSV,4,1,13,29,73,057,46,31,62,240,46,04,56,298,46,25,44,105,43*71
1 001F8C5A $GPGSV,4,2,13,26,41,294,46,33,31,203,37,21,30,175,23,16,13,290,38*71
1 001F8D2E $GPGSV,4,3,13,02,12,038,25,14,10,236,29,05,09,070,29,23,08,326,37*73
1 001F8D91 $GPGSV,4,4,13,12,04,106,17*4D
1 001F8E3C $BDGSV,1,1,03,211,76,072,37,212,21,053,25,213,20,042,19*66
1 001F8F10 $GNRMC,124154.000,A,4906.1614,N,00202.3230,E,000.0,000.0,310518,,,D*77
1 001F8F76 >08|03: $GNRMC,124154.000,A,4906.1614,N,00202.3230,E,0.0,000.0,310518,,,D,111111001111<12
1 001F8FF7 $GNVTG,000.0,T,,M,000.0,N,000.0,K,D*16
1 001F9030 $GNZDA,124154.000,31,05,2018,00,00*43
1 001F9090 $PSTI,20,0,1,1,0,A,0,1,3.70,100.00,-0.02,0.00*76
1 002008E2 $GNGGA,124155.000,4906.1614,N,00202.3230,E,2,12,0.9,111.6,M,46.9,M,,0000*4A
1 0020097D $GNGLL,4906.1614,N,00202.3230,E,124155.000,A,D*4F
1 00200A2A $GNGSA,A,3,25,26,31,29,02,16,05,14,23,,,,1.4,0.9,1.0*2F
1 00200AB4 $GNGSA,A,3,211,212,213,,,,,,,,,,1.4,0.9,1.0*12
1 00200B8C $GNRMC,124155.000,A,4906.1614,N,00202.3230,E,000.0,000.0,310518,,,D*76
1 00200BF2 >08|03: $GNRMC,124155.000,A,4906.1614,N,00202.3230,E,0.0,000.0,310518,,,D,111111001111<13
1 00200C73 $GNVTG,000.0,T,,M,000.0,N,000.0,K,D*16
1 00200CAB $GNZDA,124155.000,31,05,2018,00,00*42
1 00200D0E $PSTI,20,0,1,1,0,A,0,1,3.70,100.00,-0.01,0.00*75
1 002088E4 $GNGGA,124156.000,4906.1614,N,00202.3230,E,2,12,0.9,111.6,M,46.9,M,,0000*49
1 0020897D $GNGLL,4906.1614,N,00202.3230,E,124156.000,A,D*4C
1 00208A2A $GNGSA,A,3,25,26,31,29,02,16,05,14,23,,,,1.4,0.9,1.0*2F
1 00208AB4 $GNGSA,A,3,211,212,213,,,,,,,,,,1.4,0.9,1.0*12
1 00208B8C $GNRMC,124156.000,A,4906.1614,N,00202.3230,E,000.0,000.0,310518,,,D*75
1 00208BF2 >08|03: $GNRMC,124156.000,A,4906.1614,N,00202.3230,E,0.0,000.0,310518,,,D,111111001111<10
1 00208C73 $GNVTG,000.0,T,,M,000.0,N,000.0,K,D*16
1 00208CAC $GNZDA,124156.000,31,05,2018,00,00*41
1 00208D0C $PSTI,20,0,1,1,0,A,0,1,3.70,100.00,0.00,0.00*59
1 002108FA $GNGGA,124157.000,4906.1614,N,00202.3230,E,2,13,0.8,111.6,M,46.9,M,,0000*48
1 00210990 $GNGLL,4906.1614,N,00202.3230,E,124157.000,A,D*4D
1 00210A3E $GNGSA,A,3,25,26,31,29,02,16,05,14,23,21,,,1.3,0.8,1.0*2A
1 00210ACF $GNGSA,A,3,211,212,213,,,,,,,,,,1.3,0.8,1.0*14
1 00210B9E $GPGSV,4,1,13,29,73,057,46,31,62,240,47,04,56,298,46,25,44,105,43*70
1 00210C6E $GPGSV,4,2,13,26,41,294,47,33,31,203,37,21,30,175,21,16,13,290,38*72
1 00210D3E $GPGSV,4,3,13,02,12,038,25,14,10,236,30,05,09,070,29,23,08,326,36*7A
1 00210DA1 $GPGSV,4,4,13,12,04,106,19*43
1 00210E4E $BDGSV,1,1,03,211,76,072,38,212,21,053,26,213,20,042,21*61
1 00210F25 $GNRMC,124157.000,A,4906.1614,N,00202.3230,E,000.0,000.0,310518,,,D*74
1 00210F8B >08|03: $GNRMC,124157.000,A,4906.1614,N,00202.3230,E,0.0,000.0,310518,,,D,111111001111<11
1 0021100C $GNVTG,000.0,T,,M,000.0,N,000.0,K,D*16
1 00211045 $GNZDA,124157.000,31,05,2018,00,00*40
1 002110A6 $PSTI,20,0,1,1,0,A,0,1,3.70,100.00,-0.00,0.00*74
1 00218B96 $GNGGA,124158.000,4906.1614,N,00202.3230,E,2,12,0.8,111.6,M,46.9,M,,0000*46
1 00218C2D $GNGLL,4906.1614,N,00202.3230,E,124158.000,A,D*42
1 00218CE2 $GNGSA,A,3,25,26,31,29,02,16,05,14,23,21,,,1.3,0.8,1.0*2A
1 00218D62 $GNGSA,A,3,211,212,,,,,,,,,,,1.3,0.8,1.0*24
1 00218E3A $GNRMC,124158.000,A,4906.1614,N,00202.3230,E,000.0,000.0,310518,,,D*7B
1 00218EA0 >08|03: $GNRMC,124158.000,A,4906.1614,N,00202.3230,E,0.0,000.0,310518,,,D,111111001111<1E
1 00218F21 $GNVTG,000.0,T,,M,000.0,N,000.0,K,D*16
1 00218F5A $GNZDA,124158.000,31,05,2018,00,00*4F
1 00218FBA $PSTI,20,0,1,1,0,A,0,1,3.70,100.00,-0.01,0.00*75
1 002208EB $GNGGA,124159.000,4906.1614,N,00202.3230,E,2,12,0.8,111.6,M,46.9,M,,0000*47
1 00220982 $GNGLL,4906.1614,N,00202.3230,E,124159.000,A,D*43
1 00220A30 $GNGSA,A,3,25,26,31,29,02,16,05,14,23,21,,,1.3,0.8,1.0*2A
1 00220AB4 $GNGSA,A,3,211,212,,,,,,,,,,,1.3,0.8,1.0*24
1 00220B8E $GNRMC,124159.000,A,4906.1614,N,00202.3230,E,000.0,000.0,310518,,,D*7A
1 00220BF4 >08|03: $GNRMC,124159.000,A,4906.1614,N,00202.3230,E,0.0,000.0,310518,,,D,111111001111<1F
1 00220C75 $GNVTG,000.0,T,,M,000.0,N,000.0,K,D*16
1 00220CAD $GNZDA,124159.000,31,05,2018,00,00*4E
1 00220D0C $PSTI,20,0,1,1,0,A,0,1,3.70,100.00,-0.01,0.00*75
1 002288FA $GNGGA,124200.000,4906.1614,N,00202.3230,E,2,11,1.0,111.6,M,46.9,M,,0000*42
1 00228991 $GNGLL,4906.1614,N,00202.3230,E,124200.000,A,D*4C
1 00228A39 $GNGSA,A,3,25,26,31,29,02,16,05,14,23,,,,1.4,1.0,1.0*27
1 00228ABD $GNGSA,A,3,211,212,,,,,,,,,,,1.4,1.0,1.0*2A
1 00228B91 $GPGSV,4,1,13,29,73,057,46,31,62,240,47,04,56,298,46,25,44,105,44*77
1 00228C60 $GPGSV,4,2,13,26,41,294,46,33,31,203,39,21,30,175,20,16,13,290,37*73
1 00228D31 $GPGSV,4,3,13,02,12,038,27,14,10,236,33,05,09,070,26,23,08,326,34*76
1 00228D94 $GPGSV,4,4,13,12,04,106,20*49
1 00228E41 $BDGSV,1,1,03,211,76,072,39,212,21,053,27,213,20,042,20*60
1 00228F18 $GNRMC,124200.000,A,4906.1614,N,00202.3230,E,000.0,000.0,310518,,,D*75
1 00228F7E >08|03: $GNRMC,124200.000,A,4906.1614,N,00202.3230,E,0.0,000.0,310518,,,D,111111001111<10
1 00228FFF $GNVTG,000.0,T,,M,000.0,N,000.0,K,D*16
1 00229037 $GNZDA,124200.000,31,05,2018,00,00*41
1 00229099 $PSTI,20,0,1,1,0,A,0,1,3.70,100.00,-0.00,0.00*74
1 00230906 $GNGGA,124201.000,4906.1614,N,00202.3230,E,2,12,0.8,111.6,M,46.9,M,,0000*49
1 0023099D $GNGLL,4906.1614,N,00202.3230,E,124201.000,A,D*4D
1 00230A53 $GNGSA,A,3,25,26,31,29,02,16,05,14,23,21,,,1.3,0.8,1.0*2A
1 00230AD3 $GNGSA,A,3,211,212,,,,,,,,,,,1.3,0.8,1.0*24
1 00230BAA $GNRMC,124201.000,A,4906.1614,N,00202.3230,E,000.0,000.0,310518,,,D*74
1 00230C10 >08|03: $GNRMC,124201.000,A,4906.1614,N,00202.3230,E,0.0,000.0,310518,,,D,111111001111<11
1 00230C91 $GNVTG,000.0,T,,M,000.0,N,000.0,K,D*16
1 00230CCA $GNZDA,124201.000,31,05,2018,00,00*40
1 00230D2A $PSTI,20,0,1,1,0,A,0,1,3.70,100.00,-0.01,0.00*75
1 00238B95 $GNGGA,124202.000,4906.1614,N,00202.3230,E,2,12,0.9,111.6,M,46.9,M,,0000*4B
1 00238C2D $GNGLL,4906.1614,N,00202.3230,E,124202.000,A,D*4E
1 00238CDD $GNGSA,A,3,25,26,31,29,02,16,05,14,23,,,,1.4,0.9,1.0*2F
1 00238D65 $GNGSA,A,3,211,212,213,,,,,,,,,,1.4,0.9,1.0*12
1 00238E3D $GNRMC,124202.000,A,4906.1614,N,00202.3230,E,000.0,000.0,310518,,,D*77
1 00238EA3 >08|03: $GNRMC,124202.000,A,4906.1614,N,00202.3230,E,0.0,000.0,310518,,,D,111111001111<12
1 00238F24 $GNVTG,000.0,T,,M,000.0,N,000.0,K,D*16
1 00238F5D $GNZDA,124202.000,31,05,2018,00,00*43
1 00238FBC $PSTI,20,0,1,1,0,A,0,1,3.70,100.00,-0.01,0.00*75
1 002408EA $GNGGA,124203.000,4906.1614,N,00202.3230,E,2,13,0.8,111.6,M,46.9,M,,0000*4A
1 0024097F $GNGLL,4906.1614,N,00202.3230,E,124203.000,A,D*4F
1 00240A2F $GNGSA,A,3,25,26,31,29,02,16,05,14,23,21,,,1.3,0.8,1.0*2A
1 00240ABA $GNGSA,A,3,211,212,213,,,,,,,,,,1.3,0.8,1.0*14
1 00240B8C $GPGSV,4,1,13,29,73,057,47,31,62,240,46,04,56,298,45,25,44,105,44*74
1 00240C5A $GPGSV,4,2,13,26,41,294,46,33,31,203,39,21,30,175,25,16,13,290,38*79
1 00240D2E $GPGSV,4,3,13,02,12,038,34,14,10,236,33,05,09,070,28,23,08,326,29*76
1 00240D91 $GPGSV,4,4,13,12,04,106,20*49
1 00240E3D $BDGSV,1,1,03,211,76,072,40,212,21,053,24,213,20,042,20*6D
1 00240F10 $GNRMC,124203.000,A,4906.1614,N,00202.3230,E,000.0,000.0,310518,,,D*76
1 00240F76 >08|03: $GNRMC,124203.000,A,4906.1614,N,00202.3230,E,0.0,000.0,310518,,,D,111111001111<13
1 00240FF7 $GNVTG,000.0,T,,M,000.0,N,000.0,K,D*16
1 00241030 $GNZDA,124203.000,31,05,2018,00,00*42
1 0024108F $PSTI,20,0,1,1,0,A,0,1,3.70,100.00,0.01,0.00*58
1 002488E4 $GNGGA,124204.000,4906.1614,N,00202.3230,E,2,13,0.8,111.6,M,46.9,M,,0000*4D
1 0024897E $GNGLL,4906.1614,N,00202.3230,E,124204.000,A,D*48
1 00248A33 $GNGSA,A,3,25,26,31,29,02,16,05,14,23,21,,,1.3,0.8,1.0*2A
1 00248ABB $GNGSA,A,3,211,212,213,,,,,,,,,,1.3,0.8,1.0*14
1 00248B92 $GNRMC,124204.000,A,4906.1614,N,00202.3230,E,000.0,000.0,310518,,,D*71
1 00248BF8 >08|03: $GNRMC,124204.000,A,4906.1614,N,00202.3230,E,0.0,000.0,310518,,,D,111111001111<14
1 00248C79 $GNVTG,000.0,T,,M,000.0,N,000.0,K,D*16
1 00248CB2 $GNZDA,124204.000,31,05,2018,00,00*45
1 00248D14 $PSTI,20,0,1,1,0,A,0,1,3.70,100.00,-0.01,0.00*75
1 002508E3 $GNGGA,124205.000,4906.1614,N,00202.3230,E,2,13,0.8,111.6,M,46.9,M,,0000*4C
1 0025097F $GNGLL,4906.1614,N,00202.3230,E,124205.000,A,D*49
1 00250A30 $GNGSA,A,3,25,26,31,29,02,16,05,14,23,21,,,1.3,0.8,1.0*2A
1 00250ABB $GNGSA,A,3,211,212,213,,,,,,,,,,1.3,0.8,1.0*14
1 00250B91 $GNRMC,124205.000,A,4906.1614,N,00202.3230,E,000.0,000.0,310518,,,D*70
1 00250BF7 >08|03: $GNRMC,124205.000,A,4906.1614,N,00202.3230,E,0.0,000.0,310518,,,D,111111001111<15
1 00250C78 $GNVTG,000.0,T,,M,000.0,N,000.0,K,D*16
1 00250CB1 $GNZDA,124205.000,31,05,2018,00,00*44
1 00250D28 $PSTI,20,0,1,1,0,A,0,1,3.70,100.00,-0.02,0.00*76
1 002588E5 $GNGGA,124206.000,4906.1614,N,00202.3230,E,2,13,0.8,111.6,M,46.9,M,,0000*4F
1 0025897F $GNGLL,4906.1614,N,00202.3230,E,124206.000,A,D*4A
1 00258A30 $GNGSA,A,3,25,26,31,29,02,16,05,14,23,21,,,1.3,0.8,1.0*2A
1 00258ABB $GNGSA,A,3,211,212,213,,,,,,,,,,1.3,0.8,1.0*14
1 00258B8C $GPGSV,4,1,13,29,73,057,46,31,62,240,46,04,56,298,46,25,44,105,44*76
1 00258C5B $GPGSV,4,2,13,26,41,294,46,33,31,203,37,21,30,175,26,16,13,290,38*74
1 00258D2E $GPGSV,4,3,13,02,12,038,30,14,10,236,36,05,09,070,26,23,08,326,35*74
1 00258D91 $GPGSV,4,4,13,12,04,106,16*4C
1 00258E3D $BDGSV,1,1,03,211,76,072,42,212,21,053,29,213,20,042,27*65
1 00258F11 $GNRMC,124206.000,A,4906.1614,N,00202.3230,E,000.0,000.0,310518,,,D*73
1 00258F77 >08|03: $GNRMC,124206.000,A,4906.1614,N,00202.3230,E,0.0,000.0,310518,,,D,111111001111<16
1 00258FF8 $GNVTG,000.0,T,,M,000.0,N,000.0,K,D*16
1 00259030 $GNZDA,124206.000,31,05,2018,00,00*47
1 00259091 $PSTI,20,0,1,1,0,A,0,1,3.70,100.00,-0.01,0.00*75
1 002608E4 $GNGGA,124207.000,4906.1614,N,00202.3230,E,2,13,0.8,111.6,M,46.9,M,,0000*4E
1 0026097E $GNGLL,4906.1614,N,00202.3230,E,124207.000,A,D*4B
1 00260A30 $GNGSA,A,3,25,26,31,29,02,16,05,14,23,21,,,1.3,0.8,1.0*2A
1 00260ABB $GNGSA,A,3,211,212,213,,,,,,,,,,1.3,0.8,1.0*14
1 00260B93 $GNRMC,124207.000,A,4906.1614,N,00202.3230,E,000.0,000.0,310518,,,D*72
1 00260BF9 >08|03: $GNRMC,124207.000,A,4906.1614,N,00202.3230,E,0.0,000.0,310518,,,D,111111001111<17
1 00260C7A $GNVTG,000.0,T,,M,000.0,N,000.0,K,D*16
1 00260CB3 $GNZDA,124207.000,31,05,2018,00,00*46
1 00260D14 $PSTI,20,0,1,1,0,A,0,1,3.70,100.00,-0.01,0.00*75
1 002688E7 $GNGGA,124208.000,4906.1614,N,00202.3230,E,2,13,0.8,111.6,M,46.9,M,,0000*41
1 00268985 $GNGLL,4906.1614,N,00202.3230,E,124208.000,A,D*44
1 00268A30 $GNGSA,A,3,25,26,31,29,02,16,05,14,23,21,,,1.3,0.8,1.0*2A
1 00268ABB $GNGSA,A,3,211,212,213,,,,,,,,,,1.3,0.8,1.0*14
1 00268B91 $GNRMC,124208.000,A,4906.1614,N,00202.3230,E,000.0,000.0,310518,,,D*7D
1 00268BF7 >08|03: $GNRMC,124208.000,A,4906.1614,N,00202.3230,E,0.0,000.0,310518,,,D,111111001111<18
1 00268C78 $GNVTG,000.0,T,,M,000.0,N,000.0,K,D*16
1 00268CB1 $GNZDA,124208.000,31,05,2018,00,00*49
1 00268D14 $PSTI,20,0,1,1,0,A,0,1,3.70,100.00,-0.00,0.00*74
1 002708E5 $GNGGA,124209.000,4906.1614,N,00202.3230,E,2,13,0.8,111.6,M,46.9,M,,0000*40
1 0027097E $GNGLL,4906.1614,N,00202.3230,E,124209.000,A,D*45
1 00270A30 $GNGSA,A,3,25,26,31,29,02,16,05,14,23,21,,,1.3,0.8,1.0*2A
1 00270ABB $GNGSA,A,3,211,212,213,,,,,,,,,,1.3,0.8,1.0*14
1 00270B8C $GPGSV,4,1,13,29,73,057,45,31,62,240,45,04,56,298,46,25,44,105,43*71
1 00270C5B $GPGSV,4,2,13,26,41,294,45,33,31,203,38,21,30,175,25,16,13,290,36*75
1 00270D2D $GPGSV,4,3,13,02,12,038,33,14,10,236,33,05,09,070,24,23,08,326,31*74
1 00270D91 $GPGSV,4,4,13,12,04,106,17*4D
1 00270E3D $BDGSV,1,1,03,211,76,072,39,212,21,053,29,213,20,042,27*69
1 00270F11 $GNRMC,124209.000,A,4906.1614,N,00202.3230,E,000.0,000.0,310518,,,D*7C
1 00270F77 >08|03: $GNRMC,124209.000,A,4906.1614,N,00202.3230,E,0.0,000.0,310518,,,D,111111001111<19
1 00270FF8 $GNVTG,000.0,T,,M,000.0,N,000.0,K,D*16
1 00271031 $GNZDA,124209.000,31,05,2018,00,00*48
1 00271091 $PSTI,20,0,1,1,0,A,0,1,3.70,100.00,-0.01,0.00*75
1 002788E6 $GNGGA,124210.000,4906.1614,N,00202.3230,E,2,13,0.8,111.6,M,46.9,M,,0000*48
1 00278984 $GNGLL,4906.1614,N,00202.3230,E,124210.000,A,D*4D
1 00278A30 $GNGSA,A,3,25,26,31,29,02,16,05,14,23,21,,,1.3,0.8,1.0*2A
1 00278ABC $GNGSA,A,3,211,212,213,,,,,,,,,,1.3,0.8,1.0*14
1 00278B92 $GNRMC,124210.000,A,4906.1614,N,00202.3230,E,000.0,000.0,310518,,,D*74
1 00278BF8 >08|03: $GNRMC,124210.000,A,4906.1614,N,00202.3230,E,0.0,000.0,310518,,,D,111111001111<11
1 00278C79 $GNVTG,000.0,T,,M,000.0,N,000.0,K,D*16
1 00278CB1 $GNZDA,124210.000,31,05,2018,00,00*40
1 00278D14 $PSTI,20,0,1,1,0,A,0,1,3.70,100.00,-0.01,0.00*75
1 002808EE $GNGGA,124211.000,4906.1614,N,00202.3230,E,2,13,0.8,111.6,M,46.9,M,,0000*49
1 00280982 $GNGLL,4906.1614,N,00202.3230,E,124211.000,A,D*4C
1 00280A33 $GNGSA,A,3,25,26,31,29,02,16,05,14,23,21,,,1.3,0.8,1.0*2A
1 00280ABD $GNGSA,A,3,211,212,213,,,,,,,,,,1.3,0.8,1.0*14
1 00280B98 $GNRMC,124211.000,A,4906.1614,N,00202.3230,E,000.0,000.0,310518,,,D*75
1 00280BFE >08|03: $GNRMC,124211.000,A,4906.1614,N,00202.3230,E,0.0,000.0,310518,,,D,111111001111<10
1 00280C7F $GNVTG,000.0,T,,M,000.0,N,000.0,K,D*16
1 00280CB8 $GNZDA,124211.000,31,05,2018,00,00*41
1 00280D19 $PSTI,20,0,1,1,0,A,0,1,3.70,100.00,-0.01,0.00*75
1 00288909 $GNGGA,124212.000,4906.1614,N,00202.3230,E,2,13,0.8,111.6,M,46.9,M,,0000*4A
1 0028899E $GNGLL,4906.1614,N,00202.3230,E,124212.000,A,D*4F
1 00288A52 $GNGSA,A,3,25,26,31,29,02,16,05,14,23,21,,,1.3,0.8,1.0*2A
1 00288ADC $GNGSA,A,3,211,212,213,,,,,,,,,,1.3,0.8,1.0*14
1 00288BAE $GPGSV,4,1,13,29,73,057,46,31,62,240,46,04,56,298,45,25,44,105,43*72
1 00288C7C $GPGSV,4,2,13,26,41,294,46,33,31,203,39,21,30,175,33,16,13,290,36*70
1 00288D4D $GPGSV,4,3,13,02,12,038,32,14,10,236,36,05,09,070,25,23,08,326,33*73
1 00288DB0 $GPGSV,4,4,13,12,04,106,17*4D
1 00288E5C $BDGSV,1,1,03,211,76,072,41,212,21,053,25,213,20,042,29*64
1 00288F32 $GNRMC,124212.000,A,4906.1614,N,00202.3230,E,000.0,000.0,310518,,,D*76
1 00288F98 >08|03: $GNRMC,124212.000,A,4906.1614,N,00202.3230,E,0.0,000.0,310518,,,D,111111001111<13
1 00289019 $GNVTG,000.0,T,,M,000.0,N,000.0,K,D*16
1 00289052 $GNZDA,124212.000,31,05,2018,00,00*42
1 002890B0 $PSTI,20,0,1,1,0,A,0,1,3.70,100.00,0.00,0.00*59
1 002908E4 $GNGGA,124213.000,4906.1614,N,00202.3230,E,2,12,0.8,111.6,M,46.9,M,,0000*4A
1 0029097F $GNGLL,4906.1614,N,00202.3230,E,124213.000,A,D*4E
1 00290A2A $GNGSA,A,3,25,26,31,29,02,16,05,14,21,,,,1.3,0.8,1.0*2B
1 00290AB7 $GNGSA,A,3,211,212,213,,,,,,,,,,1.3,0.8,1.0*14
1 00290B8C $GNRMC,124213.000,A,4906.1614,N,00202.3230,E,000.0,000.0,310518,,,D*77
1 00290BF2 >08|03: $GNRMC,124213.000,A,4906.1614,N,00202.3230,E,0.0,000.0,310518,,,D,111111001111<12
1 00290C74 $GNVTG,000.0,T,,M,000.0,N,000.0,K,D*16
1 00290CAC $GNZDA,124213.000,31,05,2018,00,00*43
1 00290D18 $PSTI,20,0,1,1,0,A,0,1,3.68,100.00,-0.02,0.00*7F
1 00298B95 $GNGGA,124214.000,4906.1614,N,00202.3230,E,2,13,0.8,111.6,M,46.9,M,,0000*4C
1 00298C2E $GNGLL,4906.1614,N,00202.3230,E,124214.000,A,D*49
1 00298CE4 $GNGSA,A,3,25,26,31,29,02,16,05,14,23,21,,,1.3,0.8,1.0*2A
1 00298D6C $GNGSA,A,3,211,212,213,,,,,,,,,,1.3,0.8,1.0*14
1 00298E43 $GNRMC,124214.000,A,4906.1614,N,00202.3230,E,000.0,000.0,310518,,,D*70
1 00298EA9 >08|03: $GNRMC,124214.000,A,4906.1614,N,00202.3230,E,0.0,000.0,310518,,,D,111111001111<15
1 00298F2A $GNVTG,000.0,T,,M,000.0,N,000.0,K,D*16
1 00298F63 $GNZDA,124214.000,31,05,2018,00,00*44
1 00298FC3 $PSTI,20,0,1,1,0,A,0,1,3.68,100.00,-0.00,0.00*7D
1 002A0B97 $GNGGA,124215.000,4906.1614,N,00202.3230,E,2,13,0.8,111.6,M,46.9,M,,0000*4D
1 002A0C2E $GNGLL,4906.1614,N,00202.3230,E,124215.000,A,D*48
1 002A0CE5 $GNGSA,A,3,25,26,31,29,02,16,05,14,23,21,,,1.3,0.8,1.0*2A
1 002A0D6C $GNGSA,A,3,211,212,213,,,,,,,,,,1.3,0.8,1.0*14
1 002A0E40 $GPGSV,4,1,13,29,73,057,45,31,62,240,45,04,56,298,45,25,44,105,42*73
1 002A0F0E $GPGSV,4,2,13,26,41,294,46,33,31,203,39,21,30,175,34,16,13,290,36*77
1 002A0FDF $GPGSV,4,3,13,02,12,038,32,14,10,235,33,05,09,070,28,23,08,326,34*7F
1 002A1043 $GPGSV,4,4,13,12,04,106,19*43
1 002A10F0 $BDGSV,1,1,03,211,76,072,39,212,21,053,31,213,20,042,27*60
1 002A11C5 $GNRMC,124215.000,A,4906.1614,N,00202.3230,E,000.0,000.0,310518,,,D*71
1 002A122B >08|03: $GNRMC,124215.000,A,4906.1614,N,00202.3230,E,0.0,000.0,310518,,,D,111111001111<14
1 002A12AC $GNVTG,000.0,T,,M,000.0,N,000.0,K,D*16
1 002A12E4 $GNZDA,124215.000,31,05,2018,00,00*45
1 002A1345 $PSTI,20,0,1,1,0,A,0,1,3.54,100.00,-0.01,0.00*73
1 002A88E4 $GNGGA,124216.000,4906.1614,N,00202.3230,E,2,13,0.8,111.6,M,46.9,M,,0000*4E
1 002A897E $GNGLL,4906.1614,N,00202.3230,E,124216.000,A,D*4B
1 002A8A30 $GNGSA,A,3,25,26,31,29,02,16,05,14,23,21,,,1.3,0.8,1.0*2A
1 002A8ABD $GNGSA,A,3,211,212,213,,,,,,,,,,1.3,0.8,1.0*14
1 002A8B92 $GNRMC,124216.000,A,4906.1614,N,00202.3230,E,000.0,000.0,310518,,,D*72
1 002A8BF8 >08|03: $GNRMC,124216.000,A,4906.1614,N,00202.3230,E,0.0,000.0,310518,,,D,111111001111<17
1 002A8C79 $GNVTG,000.0,T,,M,000.0,N,000.0,K,D*16
1 002A8CB2 $GNZDA,124216.000,31,05,2018,00,00*46
1 002A8D13 $PSTI,20,0,1,1,0,A,0,1,3.50,100.00,0.00,0.00*5B
1 002B08FA $GNGGA,124217.000,4906.1614,N,00202.3230,E,2,13,0.8,111.6,M,46.9,M,,0000*4F
1 002B0994 $GNGLL,4906.1614,N,00202.3230,E,124217.000,A,D*4A
1 002B0A40 $GNGSA,A,3,25,26,31,29,02,16,05,14,23,21,,,1.3,0.8,1.0*2A
1 002B0AD0 $GNGSA,A,3,211,212,213,,,,,,,,,,1.3,0.8,1.0*14
1 002B0BA6 $GNRMC,124217.000,A,4906.1614,N,00202.3230,E,000.0,000.0,310518,,,D*73
1 002B0C0C >08|03: $GNRMC,124217.000,A,4906.1614,N,00202.3230,E,0.0,000.0,310518,,,D,111111001111<16
1 002B0C8D $GNVTG,000.0,T,,M,000.0,N,000.0,K,D*16
1 002B0CC6 $GNZDA,124217.000,31,05,2018,00,00*47
1 002B0D24 $PSTI,20,0,1,1,0,A,0,1,3.50,100.00,0.00,0.00*5B
1 002B88FD $GNGGA,124218.000,4906.1614,N,00202.3230,E,2,13,0.8,111.6,M,46.9,M,,0000*40
1 002B8990 $GNGLL,4906.1614,N,00202.3230,E,124218.000,A,D*45
1 002B8A41 $GNGSA,A,3,25,26,31,29,02,16,05,14,23,21,,,1.3,0.8,1.0*2A
1 002B8AD2 $GNGSA,A,3,211,212,213,,,,,,,,,,1.3,0.8,1.0*14
1 002B8BA0 $GPGSV,4,1,13,29,73,057,46,31,62,240,47,04,56,298,45,25,44,105,42*72
1 002B8C70 $GPGSV,4,2,13,26,41,294,46,33,31,203,38,21,31,175,35,16,13,290,38*78
1 002B8D41 $GPGSV,4,3,13,02,12,038,25,14,10,235,34,05,09,070,28,23,08,326,25*7E
1 002B8DA4 $GPGSV,4,4,13,12,04,106,19*43
1 002B8E50 $BDGSV,1,1,03,211,76,072,41,212,21,053,28,213,20,042,29*69
1 002B8F26 $GNRMC,124218.000,A,4906.1614,N,00202.3230,E,000.0,000.0,310518,,,D*7C
1 002B8F8C >08|03: $GNRMC,124218.000,A,4906.1614,N,00202.3230,E,0.0,000.0,310518,,,D,111111001111<19
1 002B900D $GNVTG,000.0,T,,M,000.0,N,000.0,K,D*16
1 002B9046 $GNZDA,124218.000,31,05,2018,00,00*48
1 002B90A8 $PSTI,20,0,1,1,0,A,0,1,3.50,100.00,-0.00,0.00*76
1 002C08E5 $GNGGA,124219.000,4906.1614,N,00202.3230,E,2,13,0.8,111.6,M,46.9,M,,0000*41
1 002C097F $GNGLL,4906.1614,N,00202.3230,E,124219.000,A,D*44
1 002C0A31 $GNGSA,A,3,25,26,31,29,02,16,05,14,23,21,,,1.3,0.8,1.0*2A
1 002C0ABD $GNGSA,A,3,211,212,213,,,,,,,,,,1.3,0.8,1.0*14
1 002C0B92 $GNRMC,124219.000,A,4906.1614,N,00202.3230,E,000.0,000.0,310518,,,D*7D
1 002C0BF8 >08|03: $GNRMC,124219.000,A,4906.1614,N,00202.3230,E,0.0,000.0,310518,,,D,111111001111<18
1 002C0C79 $GNVTG,000.0,T,,M,000.0,N,000.0,K,D*16
1 002C0CB2 $GNZDA,124219.000,31,05,2018,00,00*49
1 002C0D17 $PSTI,20,0,1,1,0,A,0,1,3.50,100.00,-0.00,0.00*76
1 002C8905 $GNGGA,124220.000,4906.1614,N,00202.3230,E,2,13,0.8,111.6,M,46.9,M,,0000*4B
1 002C899F $GNGLL,4906.1614,N,00202.3230,E,124220.000,A,D*4E
1 002C8A56 $GNGSA,A,3,25,26,31,29,02,16,05,14,23,21,,,1.3,0.8,1.0*2A
1 002C8ADD $GNGSA,A,3,211,212,213,,,,,,,,,,1.3,0.8,1.0*14
1 002C8BB6 $GNRMC,124220.000,A,4906.1614,N,00202.3230,E,000.0,000.0,310518,,,D*77
1 002C8C1C >08|03: $GNRMC,124220.000,A,4906.1614,N,00202.3230,E,0.0,000.0,310518,,,D,111111001111<12
1 002C8C9D $GNVTG,000.0,T,,M,000.0,N,000.0,K,D*16
1 002C8CD6 $GNZDA,124220.000,31,05,2018,00,00*43
1 002C8D36 $PSTI,20,0,1,1,0,A,0,1,3.50,100.00,-0.02,0.00*74
1 002D0908 $GNGGA,124221.000,4906.1614,N,00202.3230,E,2,13,0.8,111.6,M,46.9,M,,0000*4A
1 002D099F $GNGLL,4906.1614,N,00202.3230,E,124221.000,A,D*4F
1 002D0A54 $GNGSA,A,3,25,26,31,29,02,16,05,14,23,21,,,1.3,0.8,1.0*2A
1 002D0ADC $GNGSA,A,3,211,212,213,,,,,,,,,,1.3,0.8,1.0*14
1 002D0BAF $GPGSV,4,1,13,29,73,057,45,31,62,240,46,04,56,298,45,25,44,105,40*72
1 002D0C7D $GPGSV,4,2,13,26,41,294,45,33,31,203,35,21,31,175,35,16,13,290,40*79
1 002D0D4D $GPGSV,4,3,13,02,12,038,28,14,10,235,34,05,09,070,27,23,08,326,31*79
1 002D0DB0 $GPGSV,4,4,13,12,04,106,18*42
1 002D0E5E $BDGSV,1,1,03,211,76,072,41,212,21,053,25,213,20,042,29*64
1 002D0F39 $GNRMC,124221.000,A,4906.1614,N,00202.3230,E,000.0,000.0,310518,,,D*76
1 002D0F9F >08|03: $GNRMC,124221.000,A,4906.1614,N,00202.3230,E,0.0,000.0,310518,,,D,111111001111<13
1 002D1020 $GNVTG,000.0,T,,M,000.0,N,000.0,K,D*16
1 002D1059 $GNZDA,124221.000,31,05,2018,00,00*42
1 002D10B9 $PSTI,20,0,1,1,0,A,0,1,3.51,100.00,-0.01,0.00*76
1 002D88E5 $GNGGA,124222.000,4906.1614,N,00202.3230,E,2,13,0.8,111.6,M,46.9,M,,0000*49
1 002D897F $GNGLL,4906.1614,N,00202.3230,E,124222.000,A,D*4C
1 002D8A31 $GNGSA,A,3,25,26,31,29,02,16,05,14,23,21,,,1.3,0.8,1.0*2A
1 002D8ABC $GNGSA,A,3,211,212,213,,,,,,,,,,1.3,0.8,1.0*14
1 002D8B93 $GNRMC,124222.000,A,4906.1614,N,00202.3230,E,000.0,000.0,310518,,,D*75
1 002D8BF9 >08|03: $GNRMC,124222.000,A,4906.1614,N,00202.3230,E,0.0,000.0,310518,,,D,111111001111<10
1 002D8C7A $GNVTG,000.0,T,,M,000.0,N,000.0,K,D*16
1 002D8CB3 $GNZDA,124222.000,31,05,2018,00,00*41
1 002D8D16 $PSTI,20,0,1,1,0,A,0,1,3.48,100.00,-0.01,0.00*7E
1 002E0907 $GNGGA,124223.000,4906.1614,N,00202.3230,E,2,13,0.8,111.6,M,46.9,M,,0000*48
1 002E09A1 $GNGLL,4906.1614,N,00202.3230,E,124223.000,A,D*4D
1 002E0A5C $GNGSA,A,3,25,26,31,29,02,16,05,14,23,21,,,1.3,0.8,1.0*2A
1 002E0AE2 $GNGSA,A,3,211,212,213,,,,,,,,,,1.3,0.8,1.0*14
1 002E0BB7 $GNRMC,124223.000,A,4906.1614,N,00202.3230,E,000.0,000.0,310518,,,D*74
1 002E0C1D >08|03: $GNRMC,124223.000,A,4906.1614,N,00202.3230,E,0.0,000.0,310518,,,D,111111001111<11
1 002E0C9E $GNVTG,000.0,T,,M,000.0,N,000.0,K,D*16
1 002E0CD7 $GNZDA,124223.000,31,05,2018,00,00*40
1 002E0D34 $PSTI,20,0,1,1,0,A,0,1,3.45,100.00,-0.00,0.00*72
1 002E88FB $GNGGA,124224.000,4906.1614,N,00202.3230,E,2,13,0.8,111.6,M,46.9,M,,0000*4F
1 002E898F $GNGLL,4906.1614,N,00202.3230,E,124224.000,A,D*4A
1 002E8A40 $GNGSA,A,3,25,26,31,29,02,16,05,14,23,21,,,1.3,0.8,1.0*2A
1 002E8AD5 $GNGSA,A,3,211,212,213,,,,,,,,,,1.3,0.8,1.0*14
1 002E8BA1 $GPGSV,4,1,13,29,73,057,46,31,62,239,47,04,56,298,45,25,44,105,44*7A
1 002E8C70 $GPGSV,4,2,13,26,41,294,46,33,31,203,37,21,31,175,34,16,13,290,36*78
1 002E8D40 $GPGSV,4,3,13,02,12,038,35,14,10,235,30,05,09,070,25,23,08,326,31*73
1 002E8DA4 $GPGSV,4,4,13,12,04,106,18*42
1 002E8E51 $BDGSV,1,1,03,211,76,072,41,212,21,053,30,213,20,042,24*6D
1 002E8F26 $GNRMC,124224.000,A,4906.1614,N,00202.3230,E,000.0,000.0,310518,,,D*73
1 002E8F8C >08|03: $GNRMC,124224.000,A,4906.1614,N,00202.3230,E,0.0,000.0,310518,,,D,111111001111<16
1 002E900D $GNVTG,000.0,T,,M,000.0,N,000.0,K,D*16
1 002E9046 $GNZDA,124224.000,31,05,2018,00,00*47
1 002E90A8 $PSTI,20,0,1,1,0,A,0,1,3.45,100.00,-0.00,0.00*72
1 002F08FA $GNGGA,124225.000,4906.1614,N,00202.3230,E,2,13,0.8,111.6,M,46.9,M,,0000*4E
1 002F098F $GNGLL,4906.1614,N,00202.3230,E,124225.000,A,D*4B
1 002F0A41 $GNGSA,A,3,25,26,31,29,02,16,05,14,23,21,,,1.3,0.8,1.0*2A
1 002F0AD1 $GNGSA,A,3,211,212,213,,,,,,,,,,1.3,0.8,1.0*14
1 002F0BA7 $GNRMC,124225.000,A,4906.1614,N,00202.3230,E,000.0,000.0,310518,,,D*72
1 002F0C0D >08|03: $GNRMC,124225.000,A,4906.1614,N,00202.3230,E,0.0,000.0,310518,,,D,111111001111<17
1 002F0C8F $GNVTG,000.0,T,,M,000.0,N,000.0,K,D*16
1 002F0CC7 $GNZDA,124225.000,31,05,2018,00,00*46
1 002F0D27 $PSTI,20,0,1,1,0,A,0,1,3.45,100.00,-0.01,0.00*73
1 002F88E5 $GNGGA,124226.000,4906.1614,N,00202.3230,E,2,13,0.8,111.6,M,46.9,M,,0000*4D
1 002F897F $GNGLL,4906.1614,N,00202.3230,E,124226.000,A,D*48
1 002F8A31 $GNGSA,A,3,25,26,31,29,02,16,05,14,23,21,,,1.3,0.8,1.0*2A
1 002F8ABC $GNGSA,A,3,211,212,213,,,,,,,,,,1.3,0.8,1.0*14
1 002F8B93 $GNRMC,124226.000,A,4906.1614,N,00202.3230,E,000.0,000.0,310518,,,D*71
1 002F8BF9 >08|03: $GNRMC,124226.000,A,4906.1614,N,00202.3230,E,0.0,000.0,310518,,,D,111111001111<14
1 002F8C7A $GNVTG,000.0,T,,M,000.0,N,000.0,K,D*16
1 002F8CB3 $GNZDA,124226.000,31,05,2018,00,00*45
1 002F8D16 $PSTI,20,0,1,1,0,A,0,1,3.45,100.00,-0.00,0.00*72
1 00300909 $GNGGA,124227.000,4906.1614,N,00202.3230,E,2,13,0.8,111.6,M,46.9,M,,0000*4C
1 003009A0 $GNGLL,4906.1614,N,00202.3230,E,124227.000,A,D*49
1 00300A55 $GNGSA,A,3,25,26,31,29,02,16,05,14,23,21,,,1.3,0.8,1.0*2A
1 00300ADD $GNGSA,A,3,211,212,213,,,,,,,,,,1.3,0.8,1.0*14
1 00300BAE $GPGSV,4,1,13,29,73,057,45,31,62,239,46,04,56,298,44,25,44,105,46*7B
1 00300C7D $GPGSV,4,2,13,26,41,294,44,33,31,203,36,21,31,175,36,16,13,290,36*79
1 00300D4E $GPGSV,4,3,13,02,12,038,34,14,10,235,32,05,09,070,27,23,08,326,32*71
1 00300DB1 $GPGSV,4,4,13,12,04,106,18*42
1 00300E5E $BDGSV,1,1,03,211,76,072,41,212,21,053,25,213,20,042,24*69
1 00300F33 $GNRMC,124227.000,A,4906.1614,N,00202.3230,E,000.0,000.0,310518,,,D*70
1 00300F99 >08|03: $GNRMC,124227.000,A,4906.1614,N,00202.3230,E,0.0,000.0,310518,,,D,111111001111<15
1 0030101B $GNVTG,000.0,T,,M,000.0,N,000.0,K,D*16
1 00301053 $GNZDA,124227.000,31,05,2018,00,00*44
1 003010B5 $PSTI,20,0,1,1,0,A,0,1,3.45,100.00,-0.00,0.00*72
1 00308B97 $GNGGA,124228.000,4906.1614,N,00202.3230,E,2,13,0.8,111.6,M,46.9,M,,0000*43
1 00308C2F $GNGLL,4906.1614,N,00202.3230,E,124228.000,A,D*46
1 00308CE4 $GNGSA,A,3,25,26,31,29,02,16,05,14,23,21,,,1.3,0.8,1.0*2A
1 00308D6D $GNGSA,A,3,211,212,213,,,,,,,,,,1.3,0.8,1.0*14
1 00308E43 $GNRMC,124228.000,A,4906.1614,N,00202.3230,E,000.0,000.0,310518,,,D*7F
1 00308EAA >08|03: $GNRMC,124228.000,A,4906.1614,N,00202.3230,E,0.0,000.0,310518,,,D,111111001111<1A
1 00308F2B $GNVTG,000.0,T,,M,000.0,N,000.0,K,D*16
1 00308F63 $GNZDA,124228.000,31,05,2018,00,00*4B
1 00308FC3 $PSTI,20,0,1,1,0,A,0,1,3.45,100.00,-0.00,0.00*72
1 003108E5 $GNGGA,124229.000,4906.1614,N,00202.3230,E,2,13,0.8,111.6,M,46.9,M,,0000*42
1 00310980 $GNGLL,4906.1614,N,00202.3230,E,124229.000,A,D*47
1 00310A31 $GNGSA,A,3,25,26,31,29,02,16,05,14,23,21,,,1.3,0.8,1.0*2A
1 00310ABD $GNGSA,A,3,211,212,213,,,,,,,,,,1.3,0.8,1.0*14
1 00310B93 $GNRMC,124229.000,A,4906.1614,N,00202.3230,E,000.0,000.0,310518,,,D*7E
1 00310BF9 >08|03: $GNRMC,124229.000,A,4906.1614,N,00202.3230,E,0.0,000.0,310518,,,D,111111001111<1B
1 00310C7A $GNVTG,000.0,T,,M,000.0,N,000.0,K,D*16
1 00310CB3 $GNZDA,124229.000,31,05,2018,00,00*4A
1 00310D13 $PSTI,20,0,1,1,0,A,0,1,3.45,100.00,0.00,0.00*5F
1 003188FB $GNGGA,124230.000,4906.1614,N,00202.3230,E,2,13,0.8,111.6,M,46.9,M,,0000*4A
1 00318990 $GNGLL,4906.1614,N,00202.3230,E,124230.000,A,D*4F
1 00318A41 $GNGSA,A,3,25,26,31,29,02,16,05,14,23,21,,,1.3,0.8,1.0*2A
1 00318AD1 $GNGSA,A,3,211,212,213,,,,,,,,,,1.3,0.8,1.0*14
1 00318BA2 $GPGSV,4,1,13,29,73,057,45,31,62,239,46,04,56,299,44,25,44,105,45*79
1 00318C71 $GPGSV,4,2,13,26,41,294,45,33,31,203,37,21,31,175,37,16,13,290,32*7C
1 00318D41 $GPGSV,4,3,13,02,12,038,38,05,10,069,26,14,10,235,29,23,08,326,31*75
1 00318DA4 $GPGSV,4,4,13,12,04,106,17*4D
1 00318E52 $BDGSV,1,1,03,211,76,072,41,212,21,053,34,213,20,042,24*69
1 00318F27 $GNRMC,124230.000,A,4906.1614,N,00202.3230,E,000.0,000.0,310518,,,D*76
1 00318F8D >08|03: $GNRMC,124230.000,A,4906.1614,N,00202.3230,E,0.0,000.0,310518,,,D,111111001111<13
1 0031900E $GNVTG,000.0,T,,M,000.0,N,000.0,K,D*16
1 00319047 $GNZDA,124230.000,31,05,2018,00,00*42
1 003190AE $PSTI,20,0,1,1,0,A,0,1,3.45,100.00,-0.00,0.00*72
1 003208E6 $GNGGA,124231.000,4906.1614,N,00202.3230,E,2,13,0.8,111.6,M,46.9,M,,0000*4B
1 00320980 $GNGLL,4906.1614,N,00202.3230,E,124231.000,A,D*4E
1 00320A31 $GNGSA,A,3,25,26,31,29,02,16,05,14,23,21,,,1.3,0.8,1.0*2A
1 00320ABD $GNGSA,A,3,211,212,213,,,,,,,,,,1.3,0.8,1.0*14
1 00320B94 $GNRMC,124231.000,A,4906.1614,N,00202.3230,E,000.0,000.0,310518,,,D*77
1 00320BFA >08|03: $GNRMC,124231.000,A,4906.1614,N,00202.3230,E,0.0,000.0,310518,,,D,111111001111<12
1 00320C7B $GNVTG,000.0,T,,M,000.0,N,000.0,K,D*16
1 00320CB4 $GNZDA,124231.000,31,05,2018,00,00*43
1 00320D13 $PSTI,20,0,1,1,0,A,0,1,3.45,100.00,0.01,0.00*5E
