912.2473 $GNRMC,121945.75,A,5220.44307,N,00448.53185,E,0.043,,141119,,,A,V*15
912.3462 $GNRMC,121945.85,A,5220.44306,N,00448.53185,E,0.046,,141119,,,A,V*1E
912.4514 $GNRMC,121945.95,A,5220.44307,N,00448.53185,E,0.063,,141119,,,A,V*19
912.5609 $GNRMC,121946.05,A,5220.44306,N,00448.53185,E,0.018,,141119,,,A,V*1E
912.6481 $GNRMC,121946.15,A,5220.44306,N,00448.53185,E,0.033,,141119,,,A,V*16
912.7473 $GNRMC,121946.25,A,5220.44306,N,00448.53185,E,0.072,,141119,,,A,V*10
912.849 $GNRMC,121946.35,A,5220.44306,N,00448.53185,E,0.064,,141119,,,A,V*16
912.9452 $GNRMC,121946.45,A,5220.44306,N,00448.53185,E,0.051,,141119,,,A,V*17
913.0459 $GNRMC,121946.55,A,5220.44306,N,00448.53185,E,0.038,,141119,,,A,V*19
913.1481 $GNRMC,121946.65,A,5220.44306,N,00448.53185,E,0.025,,141119,,,A,V*16
913.2465 $GNRMC,121946.75,A,5220.44306,N,00448.53185,E,0.046,,141119,,,A,V*12
913.3473 $GNRMC,121946.85,A,5220.44306,N,00448.53185,E,0.028,,141119,,,A,V*15
913.4545 $GNRMC,121946.95,A,5220.44306,N,00448.53185,E,0.009,,141119,,,A,V*17
913.5565 $GNRMC,121947.05,A,5220.44306,N,00448.53185,E,0.004,,141119,,,A,V*12
913.6493 $GNRMC,121947.15,A,5220.44306,N,00448.53185,E,0.028,,141119,,,A,V*1D
913.7484 $GNRMC,121947.25,A,5220.44306,N,00448.53185,E,0.029,,141119,,,A,V*1F
913.8451 $GNRMC,121947.35,A,5220.44306,N,00448.53185,E,0.037,,141119,,,A,V*11
913.9455 $GNRMC,121947.45,A,5220.44306,N,00448.53185,E,0.026,,141119,,,A,V*16
914.0482 $GNRMC,121947.55,A,5220.44305,N,00448.53185,E,0.038,,141119,,,A,V*1B
914.1455 $GNRMC,121947.65,A,5220.44305,N,00448.53185,E,0.048,,141119,,,A,V*1F
914.2464 $GNRMC,121947.75,A,5220.44305,N,00448.53185,E,0.014,,141119,,,A,V*17
914.3463 $GNRMC,121947.85,A,5220.44305,N,00448.53185,E,0.025,,141119,,,A,V*1A
914.4512 $GNRMC,121947.95,A,5220.44305,N,00448.53185,E,0.050,,141119,,,A,V*19
914.5606 $GNRMC,121948.05,A,5220.44305,N,00448.53185,E,0.035,,141119,,,A,V*1C
914.6493 $GNRMC,121948.15,A,5220.44305,N,00448.53185,E,0.031,,141119,,,A,V*19
914.7462 $GNRMC,121948.25,A,5220.44305,N,00448.53185,E,0.039,,141119,,,A,V*12
914.846 $GNRMC,121948.35,A,5220.44305,N,00448.53185,E,0.050,,141119,,,A,V*1C
914.9472 $GNRMC,121948.45,A,5220.44305,N,00448.53185,E,0.018,,141119,,,A,V*17
915.0461 $GNRMC,121948.55,A,5220.44305,N,00448.53185,E,0.022,,141119,,,A,V*1F
915.1463 $GNRMC,121948.65,A,5220.44305,N,00448.53185,E,0.037,,141119,,,A,V*18
915.2473 $GNRMC,121948.75,A,5220.44305,N,00448.53185,E,0.037,,141119,,,A,V*19
915.3459 $GNRMC,121948.85,A,5220.44305,N,00448.53185,E,0.058,,141119,,,A,V*1F
915.4522 $GNRMC,121948.95,A,5220.44305,N,00448.53185,E,0.048,,141119,,,A,V*1F
915.5622 $GNRMC,121949.05,A,5220.44305,N,00448.53185,E,0.024,,141119,,,A,V*1D
915.6462 $GNRMC,121949.15,A,5220.44305,N,00448.53185,E,0.038,,141119,,,A,V*11
915.7474 $GNRMC,121949.25,A,5220.44305,N,00448.53185,E,0.030,,141119,,,A,V*1A
915.8491 $GNRMC,121949.35,A,5220.44305,N,00448.53185,E,0.120,,141119,,,A,V*1B
915.9482 $GNRMC,121949.45,A,5220.44306,N,00448.53186,E,0.124,,141119,,,A,V*18
916.049 $GNRMC,121949.55,A,5220.44306,N,00448.53186,E,0.125,,141119,,,A,V*18
916.148 $GNRMC,121949.65,A,5220.44306,N,00448.53186,E,0.131,,141119,,,A,V*1E
916.2484 $GNRMC,121949.75,A,5220.44306,N,00448.53186,E,0.034,,141119,,,A,V*1B
916.3472 $GNRMC,121949.85,A,5220.44306,N,00448.53186,E,0.069,,141119,,,A,V*1C
916.4559 $GNRMC,121949.95,A,5220.44306,N,00448.53187,E,0.196,131.76,141119,,,A,V*01
916.5572 $GNRMC,121950.05,A,5220.44307,N,00448.53188,E,0.153,,141119,,,A,V*1B
916.6474 $GNRMC,121950.15,A,5220.44307,N,00448.53187,E,0.130,,141119,,,A,V*10
916.75 $GNRMC,121950.25,A,5220.44306,N,00448.53187,E,0.109,,141119,,,A,V*18
916.8491 $GNRMC,121950.35,A,5220.44307,N,00448.53186,E,0.145,,141119,,,A,V*11
916.948 $GNRMC,121950.45,A,5220.44307,N,00448.53185,E,0.315,249.37,141119,,,A,V*07
917.0489 $GNRMC,121950.55,A,5220.44308,N,00448.53183,E,0.556,288.27,141119,,,A,V*02
917.1466 $GNRMC,121950.65,A,5220.44308,N,00448.53180,E,0.695,294.12,141119,,,A,V*05
917.2461 $GNRMC,121950.75,A,5220.44309,N,00448.53178,E,0.597,293.47,141119,,,A,V*04
917.3493 $GNRMC,121950.85,A,5220.44309,N,00448.53177,E,0.042,,141119,,,A,V*1C
917.452 $GNRMC,121950.95,A,5220.44309,N,00448.53178,E,0.163,,141119,,,A,V*10
917.5503 $GNRMC,121951.05,A,5220.44309,N,00448.53177,E,0.137,,141119,,,A,V*16
917.6515 $GNRMC,121951.15,A,5220.44309,N,00448.53176,E,0.396,313.76,141119,,,A,V*01
917.7491 $GNRMC,121951.25,A,5220.44310,N,00448.53176,E,0.174,,141119,,,A,V*1A
917.8475 $GNRMC,121951.35,A,5220.44309,N,00448.53175,E,0.039,,141119,,,A,V*18
917.948 $GNRMC,121951.45,A,5220.44309,N,00448.53175,E,0.059,,141119,,,A,V*19
918.0461 $GNRMC,121951.55,A,5220.44309,N,00448.53176,E,0.100,,141119,,,A,V*16
918.1465 $GNRMC,121951.65,A,5220.44308,N,00448.53176,E,0.202,281.07,141119,,,A,V*07
918.2476 $GNRMC,121951.75,A,5220.44308,N,00448.53177,E,0.235,210.09,141119,,,A,V*05
918.3439 $GNRMC,121951.85,A,5220.44307,N,00448.53177,E,0.194,,141119,,,A,V*19
918.4495 $GNRMC,121951.95,A,5220.44307,N,00448.53178,E,0.310,164.31,141119,,,A,V*06
918.5575 $GNRMC,121952.05,A,5220.44306,N,00448.53178,E,0.244,155.22,141119,,,A,V*0D
918.6489 $GNRMC,121952.15,A,5220.44306,N,00448.53179,E,0.146,,141119,,,A,V*13
918.7475 $GNRMC,121952.25,A,5220.44305,N,00448.53179,E,0.176,,141119,,,A,V*10
918.8481 $GNRMC,121952.35,A,5220.44304,N,00448.53181,E,0.512,143.22,141119,,,A,V*09
918.946 $GNRMC,121952.45,A,5220.44304,N,00448.53182,E,0.339,139.94,141119,,,A,V*02
919.0464 $GNRMC,121952.55,A,5220.44303,N,00448.53182,E,0.146,,141119,,,A,V*16
919.1476 $GNRMC,121952.65,A,5220.44304,N,00448.53182,E,0.207,182.38,141119,,,A,V*0A
919.2443 $GNRMC,121952.75,A,5220.44304,N,00448.53182,E,0.065,,141119,,,A,V*13
919.3443 $GNRMC,121952.85,A,5220.44303,N,00448.53182,E,0.158,,141119,,,A,V*14
919.4543 $GNRMC,121952.95,A,5220.44303,N,00448.53182,E,0.035,,141119,,,A,V*1F
919.5545 $GNRMC,121953.05,A,5220.44303,N,00448.53182,E,0.043,,141119,,,A,V*16
919.6503 $GNRMC,121953.15,A,5220.44303,N,00448.53182,E,0.038,,141119,,,A,V*1B
919.7524 $GNRMC,121953.25,A,5220.44303,N,00448.53182,E,0.018,,141119,,,A,V*1A
919.8492 $GNRMC,121953.35,A,5220.44303,N,00448.53182,E,0.042,,141119,,,A,V*14
919.9483 $GNRMC,121953.45,A,5220.44303,N,00448.53182,E,0.027,,141119,,,A,V*10
920.0502 $GNRMC,121953.55,A,5220.44303,N,00448.53182,E,0.045,,141119,,,A,V*15
920.1472 $GNRMC,121953.65,A,5220.44303,N,00448.53182,E,0.026,,141119,,,A,V*13
920.2461 $GNRMC,121953.75,A,5220.44303,N,00448.53182,E,0.027,,141119,,,A,V*13
920.3481 $GNRMC,121953.85,A,5220.44303,N,00448.53182,E,0.007,,141119,,,A,V*1E
920.453 $GNRMC,121953.95,A,5220.44303,N,00448.53182,E,0.038,,141119,,,A,V*13
920.5603 $GNRMC,121954.05,A,5220.44303,N,00448.53182,E,0.014,,141119,,,A,V*13
920.6514 $GNRMC,121954.15,A,5220.44303,N,00448.53182,E,0.045,,141119,,,A,V*16
920.7521 $GNRMC,121954.25,A,5220.44303,N,00448.53182,E,0.053,,141119,,,A,V*12
920.8503 $GNRMC,121954.35,A,5220.44303,N,00448.53182,E,0.023,,141119,,,A,V*14
920.9545 $GNRMC,121954.45,A,5220.44303,N,00448.53182,E,0.016,,141119,,,A,V*15
921.0474 $GNRMC,121954.55,A,5220.44303,N,00448.53182,E,0.060,,141119,,,A,V*15
921.1491 $GNRMC,121954.65,A,5220.44303,N,00448.53182,E,0.010,,141119,,,A,V*11
921.2496 $GNRMC,121954.75,A,5220.44303,N,00448.53182,E,0.037,,141119,,,A,V*15
921.3503 $GNRMC,121954.85,A,5220.44303,N,00448.53182,E,0.029,,141119,,,A,V*15
921.4555 $GNRMC,121954.95,A,5220.44303,N,00448.53182,E,0.030,,141119,,,A,V*1C
921.5561 $GNRMC,121955.05,A,5220.44302,N,00448.53182,E,0.024,,141119,,,A,V*10
921.6522 $GNRMC,121955.15,A,5220.44302,N,00448.53182,E,0.016,,141119,,,A,V*10
921.7495 $GNRMC,121955.25,A,5220.44302,N,00448.53182,E,0.049,,141119,,,A,V*19
921.8514 $GNRMC,121955.35,A,5220.44302,N,00448.53182,E,0.036,,141119,,,A,V*10
921.9495 $GNRMC,121955.45,A,5220.44303,N,00448.53182,E,0.058,,141119,,,A,V*1E
922.0479 $GNRMC,121955.55,A,5220.44302,N,00448.53182,E,0.051,,141119,,,A,V*17
922.149 $GNRMC,121955.65,A,5220.44302,N,00448.53182,E,0.032,,141119,,,A,V*11
922.2482 $GNRMC,121955.75,A,5220.44302,N,00448.53182,E,0.019,,141119,,,A,V*19
922.3481 $GNRMC,121955.85,A,5220.44302,N,00448.53182,E,0.077,,141119,,,A,V*1E
922.456 $GNRMC,121955.95,A,5220.44302,N,00448.53182,E,0.088,,141119,,,A,V*1F
922.5585 $GNRMC,121956.05,A,5220.44302,N,00448.53182,E,0.065,,141119,,,A,V*16
922.6523 $GNRMC,121956.15,A,5220.44302,N,00448.53182,E,0.070,,141119,,,A,V*13
922.7523 $GNRMC,121956.25,A,5220.44302,N,00448.53182,E,0.026,,141119,,,A,V*13
922.8481 $GNRMC,121956.35,A,5220.44302,N,00448.53182,E,0.057,,141119,,,A,V*14
922.9491 $GNRMC,121956.45,A,5220.44302,N,00448.53181,E,0.161,,141119,,,A,V*14
923.0504 $GNRMC,121956.55,A,5220.44301,N,00448.53181,E,0.196,196.87,141119,,,A,V*01
923.1494 $GNRMC,121956.65,A,5220.44301,N,00448.53181,E,0.121,,141119,,,A,V*11
923.2483 $GNRMC,121956.75,A,5220.44301,N,00448.53180,E,0.068,,141119,,,A,V*1D
923.3505 $GNRMC,121956.85,A,5220.44301,N,00448.53180,E,0.066,,141119,,,A,V*1C
923.4545 $GNRMC,121956.95,A,5220.44301,N,00448.53181,E,0.112,,141119,,,A,V*1E
923.5541 $GNRMC,121957.05,A,5220.44301,N,00448.53181,E,0.160,,141119,,,A,V*13
923.6504 $GNRMC,121957.15,A,5220.44301,N,00448.53182,E,0.125,,141119,,,A,V*10
923.7491 $GNRMC,121957.25,A,5220.44302,N,00448.53182,E,0.175,,141119,,,A,V*15
923.8474 $GNRMC,121957.35,A,5220.44302,N,00448.53183,E,0.233,98.36,141119,,,A,V*3E
923.9492 $GNRMC,121957.45,A,5220.44303,N,00448.53183,E,0.300,40.67,141119,,,A,V*38
924.0481 $GNRMC,121957.55,A,5220.44303,N,00448.53183,E,0.199,16.88,141119,,,A,V*39
924.1479 $GNRMC,121957.65,A,5220.44303,N,00448.53183,E,0.110,,141119,,,A,V*12
924.2485 $GNRMC,121957.75,A,5220.44304,N,00448.53184,E,0.239,35.50,141119,,,A,V*36
924.3464 $GNRMC,121957.85,A,5220.44305,N,00448.53184,E,0.375,0.76,141119,,,A,V*03
924.4532 $GNRMC,121957.95,A,5220.44305,N,00448.53184,E,0.138,,141119,,,A,V*16
924.5582 $GNRMC,121958.05,A,5220.44305,N,00448.53184,E,0.122,,141119,,,A,V*1B
924.649 $GNRMC,121958.15,A,5220.44306,N,00448.53183,E,0.316,348.40,141119,,,A,V*0E
924.7494 $GNRMC,121958.25,A,5220.44307,N,00448.53182,E,0.538,329.30,141119,,,A,V*07
924.8505 $GNRMC,121958.35,A,5220.44308,N,00448.53181,E,0.485,322.80,141119,,,A,V*0D
924.9484 $GNRMC,121958.45,A,5220.44309,N,00448.53179,E,0.424,318.28,141119,,,A,V*0C
925.0482 $GNRMC,121958.55,A,5220.44309,N,00448.53178,E,0.355,315.30,141119,,,A,V*09
925.1489 $GNRMC,121958.65,A,5220.44310,N,00448.53177,E,0.300,316.17,141119,,,A,V*0B
925.2489 $GNRMC,121958.75,A,5220.44311,N,00448.53176,E,0.317,317.13,141119,,,A,V*09
925.3495 $GNRMC,121958.85,A,5220.44311,N,00448.53175,E,0.278,331.48,141119,,,A,V*07
925.4574 $GNRMC,121958.95,A,5220.44312,N,00448.53175,E,0.339,332.81,141119,,,A,V*07
925.5533 $GNRMC,121959.05,A,5220.44313,N,00448.53173,E,0.413,321.38,141119,,,A,V*07
925.6493 $GNRMC,121959.15,A,5220.44314,N,00448.53171,E,0.709,316.98,141119,,,A,V*05
925.7493 $GNRMC,121959.25,A,5220.44315,N,00448.53170,E,0.469,318.27,141119,,,A,V*09
925.8462 $GNRMC,121959.35,A,5220.44316,N,00448.53168,E,0.598,316.09,141119,,,A,V*0F
925.9465 $GNRMC,121959.45,A,5220.44318,N,00448.53167,E,0.551,320.98,141119,,,A,V*01
926.0475 $GNRMC,121959.55,A,5220.44319,N,00448.53166,E,0.382,328.74,141119,,,A,V*02
926.1461 $GNRMC,121959.65,A,5220.44319,N,00448.53166,E,0.262,335.68,141119,,,A,V*0F
926.2472 $GNRMC,121959.75,A,5220.44321,N,00448.53165,E,0.459,342.37,141119,,,A,V*02
926.3481 $GNRMC,121959.85,A,5220.44322,N,00448.53164,E,0.518,338.07,141119,,,A,V*05
926.4503 $GNRMC,121959.95,A,5220.44322,N,00448.53163,E,0.313,331.10,141119,,,A,V*01
926.5554 $GNRMC,122000.05,A,5220.44323,N,00448.53162,E,0.454,323.36,141119,,,A,V*0D
926.6522 $GNRMC,122000.15,A,5220.44324,N,00448.53161,E,0.488,322.12,141119,,,A,V*0E
926.7504 $GNRMC,122000.25,A,5220.44325,N,00448.53159,E,0.470,318.86,141119,,,A,V*04
926.8493 $GNRMC,122000.35,A,5220.44326,N,00448.53157,E,0.666,313.05,141119,,,A,V*0D
926.9494 $GNRMC,122000.45,A,5220.44327,N,00448.53156,E,0.375,313.77,141119,,,A,V*08
927.0502 $GNRMC,122000.55,A,5220.44328,N,00448.53155,E,0.278,310.82,141119,,,A,V*00
927.1486 $GNRMC,122000.65,A,5220.44328,N,00448.53154,E,0.331,320.60,141119,,,A,V*01
927.2484 $GNRMC,122000.75,A,5220.44329,N,00448.53153,E,0.450,324.72,141119,,,A,V*01
927.3461 $GNRMC,122000.85,A,5220.44329,N,00448.53152,E,0.179,,141119,,,A,V*1F
927.4503 $GNRMC,122000.95,A,5220.44330,N,00448.53151,E,0.223,324.59,141119,,,A,V*0E
927.554 $GNRMC,122001.05,A,5220.44330,N,00448.53151,E,0.393,327.51,141119,,,A,V*07
927.6515 $GNRMC,122001.15,A,5220.44331,N,00448.53150,E,0.386,325.72,141119,,,A,V*01
927.7512 $GNRMC,122001.25,A,5220.44331,N,00448.53149,E,0.170,,141119,,,A,V*1E
927.85 $GNRMC,122001.35,A,5220.44332,N,00448.53148,E,0.532,327.59,141119,,,A,V*0B
927.9459 $GNRMC,122001.45,A,5220.44333,N,00448.53147,E,0.338,327.70,141119,,,A,V*05
928.046 $GNRMC,122001.55,A,5220.44333,N,00448.53146,E,0.183,,141119,,,A,V*18
928.1464 $GNRMC,122001.65,A,5220.44334,N,00448.53145,E,0.188,,141119,,,A,V*14
928.2439 $GNRMC,122001.75,A,5220.44334,N,00448.53145,E,0.132,,141119,,,A,V*14
928.344 $GNRMC,122001.85,A,5220.44333,N,00448.53144,E,0.127,,141119,,,A,V*19
928.4532 $GNRMC,122001.95,A,5220.44333,N,00448.53144,E,0.063,,141119,,,A,V*19
928.5564 $GNRMC,122002.05,A,5220.44333,N,00448.53144,E,0.074,,141119,,,A,V*15
928.6492 $GNRMC,122002.15,A,5220.44333,N,00448.53145,E,0.249,265.22,141119,,,A,V*06
928.7553 $GNRMC,122002.25,A,5220.44332,N,00448.53145,E,0.254,207.16,141119,,,A,V*0B
928.8512 $GNRMC,122002.35,A,5220.44331,N,00448.53146,E,0.284,180.89,141119,,,A,V*0D
928.9472 $GNRMC,122002.45,A,5220.44330,N,00448.53146,E,0.214,178.31,141119,,,A,V*06
929.0481 $GNRMC,122002.55,A,5220.44330,N,00448.53146,E,0.056,,141119,,,A,V*11
929.1451 $GNRMC,122002.65,A,5220.44330,N,00448.53147,E,0.208,171.21,141119,,,A,V*00
929.2452 $GNRMC,122002.75,A,5220.44329,N,00448.53148,E,0.311,154.29,141119,,,A,V*00
929.348 $GNRMC,122002.85,A,5220.44329,N,00448.53148,E,0.202,146.83,141119,,,A,V*0F
929.4531 $GNRMC,122002.95,A,5220.44328,N,00448.53149,E,0.264,139.86,141119,,,A,V*03
929.5563 $GNRMC,122003.05,A,5220.44328,N,00448.53150,E,0.242,134.56,141119,,,A,V*07
929.6521 $GNRMC,122003.15,A,5220.44327,N,00448.53151,E,0.355,147.92,141119,,,A,V*03
929.7513 $GNRMC,122003.25,A,5220.44325,N,00448.53152,E,0.449,158.53,141119,,,A,V*08
929.8501 $GNRMC,122003.35,A,5220.44325,N,00448.53153,E,0.174,,141119,,,A,V*17
929.9486 $GNRMC,122003.45,A,5220.44325,N,00448.53153,E,0.110,,141119,,,A,V*12
930.0455 $GNRMC,122003.55,A,5220.44324,N,00448.53153,E,0.133,,141119,,,A,V*13
930.1459 $GNRMC,122003.65,A,5220.44324,N,00448.53154,E,0.180,,141119,,,A,V*1F
930.2484 $GNRMC,122003.75,A,5220.44324,N,00448.53154,E,0.071,,141119,,,A,V*11
930.3473 $GNRMC,122003.85,A,5220.44324,N,00448.53154,E,0.064,,141119,,,A,V*1A
930.4534 $GNRMC,122003.95,A,5220.44324,N,00448.53154,E,0.017,,141119,,,A,V*1F
930.5604 $GNRMC,122004.05,A,5220.44324,N,00448.53154,E,0.046,,141119,,,A,V*15
930.6512 $GNRMC,122004.15,A,5220.44324,N,00448.53154,E,0.176,,141119,,,A,V*16
930.7485 $GNRMC,122004.25,A,5220.44325,N,00448.53154,E,0.131,,141119,,,A,V*17
930.8474 $GNRMC,122004.35,A,5220.44325,N,00448.53154,E,0.066,,141119,,,A,V*15
930.9463 $GNRMC,122004.45,A,5220.44325,N,00448.53154,E,0.200,141.59,141119,,,A,V*06
931.046 $GNRMC,122004.55,A,5220.44326,N,00448.53154,E,0.204,60.70,141119,,,A,V*39
931.1465 $GNRMC,122004.65,A,5220.44326,N,00448.53155,E,0.178,,141119,,,A,V*1C
931.2465 $GNRMC,122004.75,A,5220.44326,N,00448.53155,E,0.226,28.51,141119,,,A,V*35
931.3471 $GNRMC,122004.85,A,5220.44327,N,00448.53154,E,0.273,356.87,141119,,,A,V*0B
931.4536 $GNRMC,122004.95,A,5220.44328,N,00448.53153,E,0.542,327.75,141119,,,A,V*0C
931.5561 $GNRMC,122005.05,A,5220.44329,N,00448.53153,E,0.354,336.39,141119,,,A,V*0C
931.6491 $GNRMC,122005.15,A,5220.44330,N,00448.53152,E,0.381,343.88,141119,,,A,V*04
931.7522 $GNRMC,122005.25,A,5220.44331,N,00448.53152,E,0.625,342.61,141119,,,A,V*0B
931.8462 $GNRMC,122005.35,A,5220.44333,N,00448.53151,E,0.570,343.05,141119,,,A,V*0B
931.9463 $GNRMC,122005.45,A,5220.44334,N,00448.53151,E,0.557,345.32,141119,,,A,V*0C
932.0535 $GNRMC,122005.55,A,5220.44335,N,00448.53150,E,0.332,346.00,141119,,,A,V*0A
932.1483 $GNRMC,122005.65,A,5220.44336,N,00448.53150,E,0.344,343.54,141119,,,A,V*0F
932.2484 $GNRMC,122005.75,A,5220.44337,N,00448.53150,E,0.315,342.51,141119,,,A,V*0F
932.3503 $GNRMC,122005.85,A,5220.44337,N,00448.53150,E,0.061,,141119,,,A,V*1F
932.4622 $GNRMC,122005.95,A,5220.44337,N,00448.53150,E,0.110,,141119,,,A,V*19
932.566 $GNRMC,122006.05,A,5220.44337,N,00448.53150,E,0.085,,141119,,,A,V*1E
932.6503 $GNRMC,122006.15,A,5220.44337,N,00448.53150,E,0.038,,141119,,,A,V*19
932.7483 $GNRMC,122006.25,A,5220.44337,N,00448.53150,E,0.148,,141119,,,A,V*1C
932.8479 $GNRMC,122006.35,A,5220.44337,N,00448.53150,E,0.049,,141119,,,A,V*1D
932.9496 $GNRMC,122006.45,A,5220.44337,N,00448.53150,E,0.081,,141119,,,A,V*1E
933.0489 $GNRMC,122006.55,A,5220.44337,N,00448.53150,E,0.101,,141119,,,A,V*16
933.1493 $GNRMC,122006.65,A,5220.44336,N,00448.53151,E,0.052,,141119,,,A,V*12
933.2481 $GNRMC,122006.75,A,5220.44336,N,00448.53151,E,0.046,,141119,,,A,V*16
933.3463 $GNRMC,122006.85,A,5220.44336,N,00448.53151,E,0.012,,141119,,,A,V*18
933.4546 $GNRMC,122006.95,A,5220.44336,N,00448.53151,E,0.048,,141119,,,A,V*16
933.5565 $GNRMC,122007.05,A,5220.44336,N,00448.53151,E,0.064,,141119,,,A,V*10
933.6452 $GNRMC,122007.15,A,5220.44336,N,00448.53151,E,0.112,,141119,,,A,V*11
933.7466 $GNRMC,122007.25,A,5220.44336,N,00448.53152,E,0.048,,141119,,,A,V*1F
933.8503 $GNRMC,122007.35,A,5220.44336,N,00448.53152,E,0.059,,141119,,,A,V*1E
933.9474 $GNRMC,122007.45,A,5220.44336,N,00448.53152,E,0.076,,141119,,,A,V*14
934.0482 $GNRMC,122007.55,A,5220.44336,N,00448.53152,E,0.010,,141119,,,A,V*15
934.1494 $GNRMC,122007.65,A,5220.44336,N,00448.53152,E,0.050,,141119,,,A,V*12
934.2481 $GNRMC,122007.75,A,5220.44336,N,00448.53152,E,0.088,,141119,,,A,V*16
934.3472 $GNRMC,122007.85,A,5220.44336,N,00448.53152,E,0.019,,141119,,,A,V*11
934.4543 $GNRMC,122007.95,A,5220.44336,N,00448.53152,E,0.030,,141119,,,A,V*1B
934.5554 $GNRMC,122008.05,A,5220.44336,N,00448.53152,E,0.092,,141119,,,A,V*15
934.6481 $GNRMC,122008.15,A,5220.44336,N,00448.53153,E,0.053,,141119,,,A,V*18
934.7502 $GNRMC,122008.25,A,5220.44336,N,00448.53153,E,0.039,,141119,,,A,V*17
934.8489 $GNRMC,122008.35,A,5220.44336,N,00448.53153,E,0.037,,141119,,,A,V*18
934.949 $GNRMC,122008.45,A,5220.44336,N,00448.53153,E,0.013,,141119,,,A,V*19
935.0492 $GNRMC,122008.55,A,5220.44336,N,00448.53153,E,0.076,,141119,,,A,V*1B
935.1474 $GNRMC,122008.65,A,5220.44336,N,00448.53153,E,0.064,,141119,,,A,V*1B
935.2475 $GNRMC,122008.75,A,5220.44336,N,00448.53153,E,0.030,,141119,,,A,V*1B
935.3482 $GNRMC,122008.85,A,5220.44336,N,00448.53153,E,0.038,,141119,,,A,V*1C
935.4501 $GNRMC,122008.95,A,5220.44335,N,00448.53153,E,0.098,,141119,,,A,V*14
935.5534 $GNRMC,122009.05,A,5220.44335,N,00448.53154,E,0.020,,141119,,,A,V*18
935.6523 $GNRMC,122009.15,A,5220.44335,N,00448.53154,E,0.060,,141119,,,A,V*1D
935.7505 $GNRMC,122009.25,A,5220.44335,N,00448.53154,E,0.086,,141119,,,A,V*16
935.8484 $GNRMC,122009.35,A,5220.44335,N,00448.53154,E,0.046,,141119,,,A,V*1B
935.9495 $GNRMC,122009.45,A,5220.44335,N,00448.53154,E,0.069,,141119,,,A,V*11
936.048 $GNRMC,122009.55,A,5220.44335,N,00448.53154,E,0.068,,141119,,,A,V*11
936.1496 $GNRMC,122009.65,A,5220.44335,N,00448.53154,E,0.066,,141119,,,A,V*1C
936.2482 $GNRMC,122009.75,A,5220.44335,N,00448.53155,E,0.079,,141119,,,A,V*12
936.3445 $GNRMC,122009.85,A,5220.44335,N,00448.53155,E,0.048,,141119,,,A,V*1F
936.4534 $GNRMC,122009.95,A,5220.44335,N,00448.53155,E,0.140,,141119,,,A,V*17
936.5602 $GNRMC,122010.05,A,5220.44335,N,00448.53155,E,0.070,,141119,,,A,V*14
936.6484 $GNRMC,122010.15,A,5220.44335,N,00448.53155,E,0.074,,141119,,,A,V*11
936.7491 $GNRMC,122010.25,A,5220.44335,N,00448.53155,E,0.079,,141119,,,A,V*1F
936.8502 $GNRMC,122010.35,A,5220.44335,N,00448.53155,E,0.010,,141119,,,A,V*11
936.9492 $GNRMC,122010.45,A,5220.44335,N,00448.53155,E,0.046,,141119,,,A,V*15
937.0489 $GNRMC,122010.55,A,5220.44335,N,00448.53156,E,0.010,,141119,,,A,V*14
937.1495 $GNRMC,122010.65,A,5220.44334,N,00448.53156,E,0.082,,141119,,,A,V*1D
937.2462 $GNRMC,122010.75,A,5220.44335,N,00448.53156,E,0.113,,141119,,,A,V*14
937.3472 $GNRMC,122010.85,A,5220.44335,N,00448.53156,E,0.068,,141119,,,A,V*16
937.4555 $GNRMC,122010.95,A,5220.44334,N,00448.53157,E,0.103,,141119,,,A,V*1B
937.5534 $GNRMC,122011.05,A,5220.44335,N,00448.53157,E,0.083,,141119,,,A,V*1B
937.6535 $GNRMC,122011.15,A,5220.44334,N,00448.53157,E,0.093,,141119,,,A,V*1A
937.757 $GNRMC,122011.25,A,5220.44334,N,00448.53157,E,0.061,,141119,,,A,V*14
937.8581 $GNRMC,122011.35,A,5220.44334,N,00448.53158,E,0.042,,141119,,,A,V*1B
937.9493 $GNRMC,122011.45,A,5220.44334,N,00448.53158,E,0.046,,141119,,,A,V*18
938.0505 $GNRMC,122011.55,A,5220.44334,N,00448.53158,E,0.100,,141119,,,A,V*1A
938.1482 $GNRMC,122011.65,A,5220.44334,N,00448.53159,E,0.098,,141119,,,A,V*18
938.2465 $GNRMC,122011.75,A,5220.44334,N,00448.53159,E,0.009,,141119,,,A,V*11
938.3492 $GNRMC,122011.85,A,5220.44333,N,00448.53159,E,0.053,,141119,,,A,V*16
938.4545 $GNRMC,122011.95,A,5220.44333,N,00448.53159,E,0.067,,141119,,,A,V*10
938.558 $GNRMC,122012.05,A,5220.44333,N,00448.53160,E,0.036,,141119,,,A,V*14
938.6504 $GNRMC,122012.15,A,5220.44333,N,00448.53160,E,0.008,,141119,,,A,V*18
938.7494 $GNRMC,122012.25,A,5220.44333,N,00448.53160,E,0.082,,141119,,,A,V*19
938.8494 $GNRMC,122012.35,A,5220.44333,N,00448.53160,E,0.082,,141119,,,A,V*18
938.9505 $GNRMC,122012.45,A,5220.44333,N,00448.53160,E,0.020,,141119,,,A,V*17
939.0465 $GNRMC,122012.55,A,5220.44333,N,00448.53161,E,0.080,,141119,,,A,V*1D
939.1484 $GNRMC,122012.65,A,5220.44333,N,00448.53161,E,0.063,,141119,,,A,V*13
939.2491 $GNRMC,122012.75,A,5220.44333,N,00448.53161,E,0.051,,141119,,,A,V*13
939.3476 $GNRMC,122012.85,A,5220.44333,N,00448.53161,E,0.018,,141119,,,A,V*11
939.4533 $GNRMC,122012.95,A,5220.44333,N,00448.53161,E,0.040,,141119,,,A,V*1D
939.5559 $GNRMC,122013.05,A,5220.44333,N,00448.53161,E,0.041,,141119,,,A,V*14
939.6505 $GNRMC,122013.15,A,5220.44333,N,00448.53161,E,0.040,,141119,,,A,V*14
939.7494 $GNRMC,122013.25,A,5220.44333,N,00448.53161,E,0.041,,141119,,,A,V*16
939.8516 $GNRMC,122013.35,A,5220.44333,N,00448.53161,E,0.044,,141119,,,A,V*12
939.9474 $GNRMC,122013.45,A,5220.44333,N,00448.53161,E,0.040,,141119,,,A,V*11
940.048 $GNRMC,122013.55,A,5220.44332,N,00448.53162,E,0.039,,141119,,,A,V*1C
940.1522 $GNRMC,122013.65,A,5220.44332,N,00448.53162,E,0.051,,141119,,,A,V*11
940.2465 $GNRMC,122013.75,A,5220.44332,N,00448.53162,E,0.028,,141119,,,A,V*1E
940.3474 $GNRMC,122013.85,A,5220.44332,N,00448.53162,E,0.072,,141119,,,A,V*1E
940.4554 $GNRMC,122013.95,A,5220.44332,N,00448.53162,E,0.036,,141119,,,A,V*1F
940.5621 $GNRMC,122014.05,A,5220.44332,N,00448.53163,E,0.064,,141119,,,A,V*17
940.6505 $GNRMC,122014.15,A,5220.44332,N,00448.53163,E,0.105,,141119,,,A,V*10
940.7615 $GNRMC,122014.25,A,5220.44331,N,00448.53163,E,0.051,,141119,,,A,V*10
940.8473 $GNRMC,122014.35,A,5220.44331,N,00448.53163,E,0.027,,141119,,,A,V*10
940.9544 $GNRMC,122014.45,A,5220.44331,N,00448.53163,E,0.088,,141119,,,A,V*12
941.049 $GNRMC,122014.55,A,5220.44331,N,00448.53163,E,0.023,,141119,,,A,V*12
941.1571 $GNRMC,122014.65,A,5220.44331,N,00448.53163,E,0.031,,141119,,,A,V*12
941.2481 $GNRMC,122014.75,A,5220.44331,N,00448.53164,E,0.055,,141119,,,A,V*16
941.3492 $GNRMC,122014.85,A,5220.44331,N,00448.53164,E,0.045,,141119,,,A,V*18
941.4541 $GNRMC,122014.95,A,5220.44331,N,00448.53164,E,0.038,,141119,,,A,V*13
941.559 $GNRMC,122015.05,A,5220.44331,N,00448.53164,E,0.062,,141119,,,A,V*14
941.6503 $GNRMC,122015.15,A,5220.44330,N,00448.53164,E,0.014,,141119,,,A,V*15
941.746 $GNRMC,122015.25,A,5220.44330,N,00448.53164,E,0.048,,141119,,,A,V*1F
941.846 $GNRMC,122015.35,A,5220.44330,N,00448.53164,E,0.049,,141119,,,A,V*1F
941.949 $GNRMC,122015.45,A,5220.44330,N,00448.53164,E,0.044,,141119,,,A,V*15
942.0481 $GNRMC,122015.55,A,5220.44330,N,00448.53164,E,0.021,,141119,,,A,V*17
942.1475 $GNRMC,122015.65,A,5220.44330,N,00448.53164,E,0.060,,141119,,,A,V*11
942.2482 $GNRMC,122015.75,A,5220.44330,N,00448.53164,E,0.059,,141119,,,A,V*1A
942.3463 $GNRMC,122015.85,A,5220.44330,N,00448.53164,E,0.075,,141119,,,A,V*1B
942.4531 $GNRMC,122015.95,A,5220.44329,N,00448.53164,E,0.046,,141119,,,A,V*12
942.5601 $GNRMC,122016.05,A,5220.44330,N,00448.53164,E,0.109,,141119,,,A,V*1A
942.6456 $GNRMC,122016.15,A,5220.44330,N,00448.53165,E,0.024,,141119,,,A,V*14
942.7473 $GNRMC,122016.25,A,5220.44330,N,00448.53165,E,0.042,,141119,,,A,V*17
942.8491 $GNRMC,122016.35,A,5220.44330,N,00448.53165,E,0.030,,141119,,,A,V*13
942.9544 $GNRMC,122016.45,A,5220.44330,N,00448.53165,E,0.041,,141119,,,A,V*12
943.0485 $GNRMC,122016.55,A,5220.44330,N,00448.53165,E,0.044,,141119,,,A,V*16
943.1489 $GNRMC,122016.65,A,5220.44330,N,00448.53165,E,0.019,,141119,,,A,V*1D
943.2476 $GNRMC,122016.75,A,5220.44330,N,00448.53165,E,0.005,,141119,,,A,V*11
943.348 $GNRMC,122016.85,A,5220.44329,N,00448.53166,E,0.037,,141119,,,A,V*14
943.4555 $GNRMC,122016.95,A,5220.44329,N,00448.53166,E,0.032,,141119,,,A,V*10
943.5562 $GNRMC,122017.05,A,5220.44329,N,00448.53166,E,0.096,,141119,,,A,V*16
943.6479 $GNRMC,122017.15,A,5220.44329,N,00448.53166,E,0.055,,141119,,,A,V*18
943.7543 $GNRMC,122017.25,A,5220.44329,N,00448.53166,E,0.040,,141119,,,A,V*1F
943.8513 $GNRMC,122017.35,A,5220.44329,N,00448.53166,E,0.038,,141119,,,A,V*11
943.9486 $GNRMC,122017.45,A,5220.44329,N,00448.53166,E,0.014,,141119,,,A,V*18
944.0513 $GNRMC,122017.55,A,5220.44328,N,00448.53166,E,0.077,,141119,,,A,V*1D
944.1504 $GNRMC,122017.65,A,5220.44328,N,00448.53167,E,0.058,,141119,,,A,V*12
944.248 $GNRMC,122017.75,A,5220.44328,N,00448.53167,E,0.079,,141119,,,A,V*10
944.3531 $GNRMC,122017.85,A,5220.44328,N,00448.53167,E,0.038,,141119,,,A,V*1A
944.4524 $GNRMC,122017.95,A,5220.44328,N,00448.53167,E,0.050,,141119,,,A,V*15
944.5596 $GNRMC,122018.05,A,5220.44328,N,00448.53167,E,0.023,,141119,,,A,V*17
944.6514 $GNRMC,122018.15,A,5220.44328,N,00448.53168,E,0.031,,141119,,,A,V*1A
944.7503 $GNRMC,122018.25,A,5220.44327,N,00448.53168,E,0.045,,141119,,,A,V*15
944.8502 $GNRMC,122018.35,A,5220.44327,N,00448.53168,E,0.042,,141119,,,A,V*13
944.9514 $GNRMC,122018.45,A,5220.44327,N,00448.53168,E,0.055,,141119,,,A,V*12
945.0501 $GNRMC,122018.55,A,5220.44327,N,00448.53168,E,0.031,,141119,,,A,V*11
945.1503 $GNRMC,122018.65,A,5220.44327,N,00448.53169,E,0.009,,141119,,,A,V*18
945.2492 $GNRMC,122018.75,A,5220.44327,N,00448.53169,E,0.018,,141119,,,A,V*19
945.3455 $GNRMC,122018.85,A,5220.44327,N,00448.53169,E,0.034,,141119,,,A,V*18
945.4516 $GNRMC,122018.95,A,5220.44326,N,00448.53169,E,0.071,,141119,,,A,V*19
945.5625 $GNRMC,122019.05,A,5220.44326,N,00448.53169,E,0.014,,141119,,,A,V*12
945.6501 $GNRMC,122019.15,A,5220.44326,N,00448.53169,E,0.023,,141119,,,A,V*17
945.7515 $GNRMC,122019.25,A,5220.44326,N,00448.53169,E,0.044,,141119,,,A,V*15
945.8533 $GNRMC,122019.35,A,5220.44326,N,00448.53169,E,0.036,,141119,,,A,V*11
945.9501 $GNRMC,122019.45,A,5220.44326,N,00448.53169,E,0.030,,141119,,,A,V*10
946.0494 $GNRMC,122019.55,A,5220.44326,N,00448.53170,E,0.032,,141119,,,A,V*1B
946.1534 $GNRMC,122019.65,A,5220.44326,N,00448.53170,E,0.021,,141119,,,A,V*1A
946.2463 $GNRMC,122019.75,A,5220.44325,N,00448.53170,E,0.054,,141119,,,A,V*1A
946.3473 $GNRMC,122019.85,A,5220.44325,N,00448.53170,E,0.023,,141119,,,A,V*15
946.456 $GNRMC,122019.95,A,5220.44325,N,00448.53170,E,0.038,,141119,,,A,V*1E
946.5643 $GNRMC,122020.05,A,5220.44325,N,00448.53170,E,0.006,,141119,,,A,V*10
946.6516 $GNRMC,122020.15,A,5220.44325,N,00448.53171,E,0.028,,141119,,,A,V*1C
946.7534 $GNRMC,122020.25,A,5220.44325,N,00448.53171,E,0.021,,141119,,,A,V*16
946.849 $GNRMC,122020.35,A,5220.44325,N,00448.53171,E,0.037,,141119,,,A,V*10
946.9482 $GNRMC,122020.45,A,5220.44325,N,00448.53171,E,0.010,,141119,,,A,V*12
947.0583 $GNRMC,122020.55,A,5220.44324,N,00448.53171,E,0.062,,141119,,,A,V*17
947.1535 $GNRMC,122020.65,A,5220.44324,N,00448.53171,E,0.051,,141119,,,A,V*14
947.2462 $GNRMC,122020.75,A,5220.44324,N,00448.53172,E,0.091,,141119,,,A,V*1A
947.3491 $GNRMC,122020.85,A,5220.44324,N,00448.53172,E,0.035,,141119,,,A,V*1B
947.4644 $GNRMC,122020.95,A,5220.44324,N,00448.53172,E,0.078,,141119,,,A,V*13
947.5622 $GNRMC,122021.05,A,5220.44324,N,00448.53172,E,0.060,,141119,,,A,V*12
947.6624 $GNRMC,122021.15,A,5220.44324,N,00448.53172,E,0.056,,141119,,,A,V*16
947.7506 $GNRMC,122021.25,A,5220.44324,N,00448.53173,E,0.052,,141119,,,A,V*10
947.8505 $GNRMC,122021.35,A,5220.44324,N,00448.53173,E,0.018,,141119,,,A,V*1F
947.9504 $GNRMC,122021.45,A,5220.44323,N,00448.53173,E,0.079,,141119,,,A,V*18
948.0466 $GNRMC,122021.55,A,5220.44323,N,00448.53173,E,0.012,,141119,,,A,V*14
948.1483 $GNRMC,122021.65,A,5220.44323,N,00448.53173,E,0.041,,141119,,,A,V*11
948.2514 $GNRMC,122021.75,A,5220.44323,N,00448.53173,E,0.048,,141119,,,A,V*19
948.3496 $GNRMC,122021.85,A,5220.44323,N,00448.53173,E,0.051,,141119,,,A,V*1E
948.4562 $GNRMC,122021.95,A,5220.44323,N,00448.53174,E,0.103,,141119,,,A,V*1E
948.5653 $GNRMC,122022.05,A,5220.44323,N,00448.53174,E,0.027,,141119,,,A,V*13
948.6543 $GNRMC,122022.15,A,5220.44323,N,00448.53174,E,0.021,,141119,,,A,V*14
948.7603 $GNRMC,122022.25,A,5220.44323,N,00448.53174,E,0.070,,141119,,,A,V*13
948.8534 $GNRMC,122022.35,A,5220.44323,N,00448.53174,E,0.061,,141119,,,A,V*12
948.9482 $GNRMC,122022.45,A,5220.44323,N,00448.53174,E,0.030,,141119,,,A,V*11
949.0481 $GNRMC,122022.55,A,5220.44323,N,00448.53174,E,0.013,,141119,,,A,V*11
949.1512 $GNRMC,122022.65,A,5220.44323,N,00448.53175,E,0.025,,141119,,,A,V*16
949.2503 $GNRMC,122022.75,A,5220.44323,N,00448.53175,E,0.005,,141119,,,A,V*15
949.3495 $GNRMC,122022.85,A,5220.44322,N,00448.53175,E,0.060,,141119,,,A,V*18
949.4562 $GNRMC,122022.95,A,5220.44322,N,00448.53175,E,0.035,,141119,,,A,V*19
949.5603 $GNRMC,122023.05,A,5220.44322,N,00448.53175,E,0.049,,141119,,,A,V*1A
949.6525 $GNRMC,122023.15,A,5220.44322,N,00448.53175,E,0.006,,141119,,,A,V*10
949.754 $GNRMC,122023.25,A,5220.44322,N,00448.53175,E,0.045,,141119,,,A,V*14
949.8463 $GNRMC,122023.35,A,5220.44322,N,00448.53175,E,0.062,,141119,,,A,V*10
949.9458 $GNRMC,122023.45,A,5220.44322,N,00448.53175,E,0.017,,141119,,,A,V*15
950.0484 $GNRMC,122023.55,A,5220.44322,N,00448.53175,E,0.047,,141119,,,A,V*11
950.1474 $GNRMC,122023.65,A,5220.44322,N,00448.53175,E,0.052,,141119,,,A,V*16
950.2479 $GNRMC,122023.75,A,5220.44322,N,00448.53175,E,0.030,,141119,,,A,V*13
950.3485 $GNRMC,122023.85,A,5220.44322,N,00448.53175,E,0.044,,141119,,,A,V*1F
950.4533 $GNRMC,122023.95,A,5220.44322,N,00448.53175,E,0.057,,141119,,,A,V*1C
950.5652 $GNRMC,122024.05,A,5220.44322,N,00448.53176,E,0.019,,141119,,,A,V*1B
950.6536 $GNRMC,122024.15,A,5220.44322,N,00448.53176,E,0.013,,141119,,,A,V*10
950.7493 $GNRMC,122024.25,A,5220.44322,N,00448.53176,E,0.023,,141119,,,A,V*10
950.8476 $GNRMC,122024.35,A,5220.44322,N,00448.53176,E,0.050,,141119,,,A,V*15
950.95 $GNRMC,122024.45,A,5220.44322,N,00448.53176,E,0.050,,141119,,,A,V*12
951.0484 $GNRMC,122024.55,A,5220.44322,N,00448.53176,E,0.034,,141119,,,A,V*11
951.148 $GNRMC,122024.65,A,5220.44321,N,00448.53176,E,0.022,,141119,,,A,V*16
951.249 $GNRMC,122024.75,A,5220.44321,N,00448.53176,E,0.068,,141119,,,A,V*19
951.3483 $GNRMC,122024.85,A,5220.44321,N,00448.53177,E,0.018,,141119,,,A,V*10
951.4543 $GNRMC,122024.95,A,5220.44321,N,00448.53177,E,0.064,,141119,,,A,V*1A
951.5636 $GNRMC,122025.05,A,5220.44321,N,00448.53177,E,0.038,,141119,,,A,V*1B
951.6501 $GNRMC,122025.15,A,5220.44321,N,00448.53177,E,0.073,,141119,,,A,V*15
951.7515 $GNRMC,122025.25,A,5220.44321,N,00448.53177,E,0.030,,141119,,,A,V*11
951.854 $GNRMC,122025.35,A,5220.44321,N,00448.53177,E,0.024,,141119,,,A,V*15
951.9493 $GNRMC,122025.45,A,5220.44321,N,00448.53177,E,0.064,,141119,,,A,V*16
952.0515 $GNRMC,122025.55,A,5220.44321,N,00448.53178,E,0.029,,141119,,,A,V*11
952.1515 $GNRMC,122025.65,A,5220.44321,N,00448.53178,E,0.011,,141119,,,A,V*19
952.2572 $GNRMC,122025.75,A,5220.44321,N,00448.53178,E,0.062,,141119,,,A,V*1C
952.3501 $GNRMC,122025.85,A,5220.44321,N,00448.53178,E,0.016,,141119,,,A,V*10
952.4591 $GNRMC,122025.95,A,5220.44321,N,00448.53178,E,0.067,,141119,,,A,V*17
952.5626 $GNRMC,122026.05,A,5220.44321,N,00448.53178,E,0.046,,141119,,,A,V*1E
952.6581 $GNRMC,122026.15,A,5220.44321,N,00448.53178,E,0.039,,141119,,,A,V*17
952.7612 $GNRMC,122026.25,A,5220.44321,N,00448.53178,E,0.092,,141119,,,A,V*15
952.8592 $GNRMC,122026.35,A,5220.44321,N,00448.53178,E,0.038,,141119,,,A,V*14
952.9584 $GNRMC,122026.45,A,5220.44321,N,00448.53178,E,0.086,,141119,,,A,V*16
953.0595 $GNRMC,122026.55,A,5220.44321,N,00448.53177,E,0.219,339.07,141119,,,A,V*0C
953.2282 $GNRMC,122026.65,A,5220.44321,N,00448.53178,E,0.320,238.02,141119,,,A,V*0E
953.4191 $GNRMC,122026.85,A,5220.44317,N,00448.53178,E,0.766,191.21,141119,,,A,V*02
953.5012 $GNRMC,122027.00,A,5220.44318,N,00448.53179,E,0.658,128.69,141119,,,A,V*02
953.6003 $GNRMC,122027.10,A,5220.44319,N,00448.53180,E,0.162,,141119,,,A,V*10
953.7006 $GNRMC,122027.20,A,5220.44319,N,00448.53180,E,0.128,,141119,,,A,V*1D
953.8034 $GNRMC,122027.30,A,5220.44319,N,00448.53180,E,0.051,,141119,,,A,V*13
953.8994 $GNRMC,122027.40,A,5220.44319,N,00448.53180,E,0.137,,141119,,,A,V*15
954.0021 $GNRMC,122027.50,A,5220.44319,N,00448.53180,E,0.076,,141119,,,A,V*10
954.1025 $GNRMC,122027.60,A,5220.44318,N,00448.53181,E,0.050,,141119,,,A,V*17
954.1994 $GNRMC,122027.70,A,5220.44318,N,00448.53181,E,0.094,,141119,,,A,V*1E
954.3001 $GNRMC,122027.80,A,5220.44318,N,00448.53181,E,0.032,,141119,,,A,V*1D
954.3939 $GNRMC,122027.90,A,5220.44318,N,00448.53181,E,0.065,,141119,,,A,V*1E
954.5083 $GNRMC,122028.00,A,5220.44318,N,00448.53181,E,0.031,,141119,,,A,V*19
954.6015 $GNRMC,122028.10,A,5220.44318,N,00448.53181,E,0.041,,141119,,,A,V*1F
954.7014 $GNRMC,122028.20,A,5220.44318,N,00448.53181,E,0.050,,141119,,,A,V*1C
954.8002 $GNRMC,122028.30,A,5220.44318,N,00448.53181,E,0.051,,141119,,,A,V*1C
954.8989 $GNRMC,122028.40,A,5220.44318,N,00448.53181,E,0.039,,141119,,,A,V*15
954.9988 $GNRMC,122028.50,A,5220.44318,N,00448.53182,E,0.014,,141119,,,A,V*18
955.0974 $GNRMC,122028.60,A,5220.44318,N,00448.53182,E,0.027,,141119,,,A,V*1B
955.1974 $GNRMC,122028.70,A,5220.44318,N,00448.53182,E,0.029,,141119,,,A,V*14
955.2921 $GNRMC,122028.80,A,5220.44318,N,00448.53182,E,0.040,,141119,,,A,V*14
955.3971 $GNRMC,122028.90,A,5220.44318,N,00448.53182,E,0.083,,141119,,,A,V*1A
955.5044 $GNRMC,122029.00,A,5220.44318,N,00448.53182,E,0.034,,141119,,,A,V*1E
955.6034 $GNRMC,122029.10,A,5220.44318,N,00448.53182,E,0.017,,141119,,,A,V*1E
955.6994 $GNRMC,122029.20,A,5220.44318,N,00448.53182,E,0.021,,141119,,,A,V*18
955.8013 $GNRMC,122029.30,A,5220.44318,N,00448.53182,E,0.065,,141119,,,A,V*19
955.8993 $GNRMC,122029.40,A,5220.44318,N,00448.53182,E,0.043,,141119,,,A,V*1A
955.9991 $GNRMC,122029.50,A,5220.44318,N,00448.53182,E,0.052,,141119,,,A,V*1B
956.0991 $GNRMC,122029.60,A,5220.44317,N,00448.53183,E,0.360,139.79,141119,,,A,V*0F
956.2972 $GNRMC,122029.70,V,,,,,,,141119,,,N,V*19
956.3961 $GNRMC,122029.90,A,5220.44315,N,00448.53184,E,0.073,,141119,,,A,V*1F
956.5054 $GNRMC,122030.00,A,5220.44315,N,00448.53184,E,0.017,,141119,,,A,V*1C
956.6024 $GNRMC,122030.10,A,5220.44315,N,00448.53184,E,0.044,,141119,,,A,V*1B
956.6991 $GNRMC,122030.20,A,5220.44315,N,00448.53184,E,0.009,,141119,,,A,V*11
956.7995 $GNRMC,122030.30,A,5220.44315,N,00448.53184,E,0.034,,141119,,,A,V*1E
956.8992 $GNRMC,122030.40,A,5220.44315,N,00448.53184,E,0.038,,141119,,,A,V*15
956.9985 $GNRMC,122030.50,A,5220.44315,N,00448.53184,E,0.033,,141119,,,A,V*1F
957.0933 $GNRMC,122030.60,A,5220.44315,N,00448.53184,E,0.069,,141119,,,A,V*13
957.1989 $GNRMC,122030.70,A,5220.44315,N,00448.53184,E,0.042,,141119,,,A,V*1B
957.2982 $GNRMC,122030.80,A,5220.44315,N,00448.53183,E,0.061,,141119,,,A,V*12
957.3983 $GNRMC,122030.90,A,5220.44315,N,00448.53183,E,0.009,,141119,,,A,V*1D
957.5053 $GNRMC,122031.00,A,5220.44315,N,00448.53183,E,0.022,,141119,,,A,V*1C
957.6046 $GNRMC,122031.10,A,5220.44315,N,00448.53183,E,0.091,,141119,,,A,V*15
957.7026 $GNRMC,122031.20,A,5220.44315,N,00448.53183,E,0.037,,141119,,,A,V*1A
957.8015 $GNRMC,122031.30,A,5220.44315,N,00448.53183,E,0.009,,141119,,,A,V*16
957.9004 $GNRMC,122031.40,A,5220.44315,N,00448.53183,E,0.028,,141119,,,A,V*12
957.9946 $GNRMC,122031.50,A,5220.44315,N,00448.53183,E,0.009,,141119,,,A,V*10
958.1005 $GNRMC,122031.60,A,5220.44316,N,00448.53183,E,0.038,,141119,,,A,V*12
958.2001 $GNRMC,122031.70,A,5220.44316,N,00448.53182,E,0.029,,141119,,,A,V*12
958.3015 $GNRMC,122031.80,A,5220.44316,N,00448.53182,E,0.087,,141119,,,A,V*19
958.4002 $GNRMC,122031.90,A,5220.44316,N,00448.53182,E,0.037,,141119,,,A,V*13
958.5083 $GNRMC,122032.00,A,5220.44316,N,00448.53182,E,0.032,,141119,,,A,V*1C
958.6024 $GNRMC,122032.10,A,5220.44316,N,00448.53182,E,0.010,,141119,,,A,V*1D
958.7034 $GNRMC,122032.20,A,5220.44316,N,00448.53182,E,0.029,,141119,,,A,V*14
958.7995 $GNRMC,122032.30,A,5220.44316,N,00448.53182,E,0.054,,141119,,,A,V*1F
958.8952 $GNRMC,122032.40,A,5220.44316,N,00448.53182,E,0.045,,141119,,,A,V*18
959.0004 $GNRMC,122032.50,A,5220.44316,N,00448.53182,E,0.046,,141119,,,A,V*1A
959.1002 $GNRMC,122032.60,A,5220.44316,N,00448.53182,E,0.097,,141119,,,A,V*15
959.1985 $GNRMC,122032.70,A,5220.44316,N,00448.53182,E,0.066,,141119,,,A,V*1A
959.2985 $GNRMC,122032.80,A,5220.44316,N,00448.53182,E,0.062,,141119,,,A,V*11
959.3976 $GNRMC,122032.90,A,5220.44316,N,00448.53182,E,0.026,,141119,,,A,V*10
959.5061 $GNRMC,122033.00,A,5220.44316,N,00448.53182,E,0.017,,141119,,,A,V*1A
959.6031 $GNRMC,122033.10,A,5220.44316,N,00448.53182,E,0.016,,141119,,,A,V*1A
959.7011 $GNRMC,122033.20,A,5220.44316,N,00448.53182,E,0.038,,141119,,,A,V*15
959.7964 $GNRMC,122033.30,A,5220.44316,N,00448.53182,E,0.033,,141119,,,A,V*1F
959.9012 $GNRMC,122033.40,A,5220.44316,N,00448.53182,E,0.020,,141119,,,A,V*1A
959.9991 $GNRMC,122033.50,A,5220.44316,N,00448.53182,E,0.098,,141119,,,A,V*18
960.1024 $GNRMC,122033.60,A,5220.44316,N,00448.53182,E,0.104,,141119,,,A,V*1F
960.1992 $GNRMC,122033.70,A,5220.44316,N,00448.53182,E,0.023,,141119,,,A,V*1A
960.2992 $GNRMC,122033.80,A,5220.44316,N,00448.53182,E,0.049,,141119,,,A,V*19
960.3993 $GNRMC,122033.90,A,5220.44316,N,00448.53182,E,0.083,,141119,,,A,V*1E
960.5061 $GNRMC,122034.00,A,5220.44316,N,00448.53182,E,0.045,,141119,,,A,V*1A
960.6003 $GNRMC,122034.10,A,5220.44316,N,00448.53182,E,0.053,,141119,,,A,V*1C
960.6953 $GNRMC,122034.20,A,5220.44316,N,00448.53182,E,0.063,,141119,,,A,V*1C
960.8005 $GNRMC,122034.30,A,5220.44316,N,00448.53182,E,0.011,,141119,,,A,V*18
960.9005 $GNRMC,122034.40,A,5220.44317,N,00448.53182,E,0.056,,141119,,,A,V*1D
961.0011 $GNRMC,122034.50,A,5220.44317,N,00448.53182,E,0.043,,141119,,,A,V*18
961.1002 $GNRMC,122034.60,A,5220.44317,N,00448.53182,E,0.021,,141119,,,A,V*1F
961.1994 $GNRMC,122034.70,A,5220.44317,N,00448.53182,E,0.039,,141119,,,A,V*17
961.299 $GNRMC,122034.80,A,5220.44317,N,00448.53182,E,0.051,,141119,,,A,V*16
961.3983 $GNRMC,122034.90,A,5220.44317,N,00448.53182,E,0.009,,141119,,,A,V*1A
961.5055 $GNRMC,122035.00,A,5220.44317,N,00448.53182,E,0.021,,141119,,,A,V*18
961.598 $GNRMC,122035.10,A,5220.44317,N,00448.53182,E,0.008,,141119,,,A,V*12
961.7031 $GNRMC,122035.20,A,5220.44317,N,00448.53182,E,0.061,,141119,,,A,V*1E
961.8002 $GNRMC,122035.30,A,5220.44317,N,00448.53181,E,0.047,,141119,,,A,V*18
961.8989 $GNRMC,122035.40,A,5220.44317,N,00448.53181,E,0.025,,141119,,,A,V*1B
961.9984 $GNRMC,122035.50,A,5220.44317,N,00448.53181,E,0.048,,141119,,,A,V*11
962.0985 $GNRMC,122035.60,A,5220.44317,N,00448.53181,E,0.118,,141119,,,A,V*16
962.1985 $GNRMC,122035.70,A,5220.44317,N,00448.53182,E,0.045,,141119,,,A,V*1D
962.2982 $GNRMC,122035.80,A,5220.44317,N,00448.53181,E,0.021,,141119,,,A,V*13
962.398 $GNRMC,122035.90,A,5220.44318,N,00448.53181,E,0.058,,141119,,,A,V*13
962.4995 $GNRMC,122036.00,A,5220.44318,N,00448.53181,E,0.013,,141119,,,A,V*16
962.6042 $GNRMC,122036.10,A,5220.44318,N,00448.53182,E,0.035,,141119,,,A,V*10
962.7016 $GNRMC,122036.20,A,5220.44318,N,00448.53182,E,0.010,,141119,,,A,V*14
962.8011 $GNRMC,122036.30,A,5220.44318,N,00448.53181,E,0.018,,141119,,,A,V*1E
962.9023 $GNRMC,122036.40,A,5220.44318,N,00448.53182,E,0.045,,141119,,,A,V*12
963.0005 $GNRMC,122036.50,A,5220.44318,N,00448.53182,E,0.012,,141119,,,A,V*11
963.1004 $GNRMC,122036.60,A,5220.44318,N,00448.53181,E,0.013,,141119,,,A,V*10
963.2003 $GNRMC,122036.70,A,5220.44318,N,00448.53182,E,0.051,,141119,,,A,V*14
963.2994 $GNRMC,122036.80,A,5220.44318,N,00448.53182,E,0.005,,141119,,,A,V*1A
963.3934 $GNRMC,122036.90,A,5220.44318,N,00448.53181,E,0.023,,141119,,,A,V*1C
963.5063 $GNRMC,122037.00,A,5220.44318,N,00448.53181,E,0.069,,141119,,,A,V*1A
963.603 $GNRMC,122037.10,A,5220.44318,N,00448.53181,E,0.031,,141119,,,A,V*16
963.7012 $GNRMC,122037.20,A,5220.44318,N,00448.53181,E,0.013,,141119,,,A,V*15
963.7976 $GNRMC,122037.30,A,5220.44318,N,00448.53181,E,0.074,,141119,,,A,V*15
963.8982 $GNRMC,122037.40,A,5220.44318,N,00448.53181,E,0.060,,141119,,,A,V*17
963.9982 $GNRMC,122037.50,A,5220.44318,N,00448.53182,E,0.013,,141119,,,A,V*11
964.0976 $GNRMC,122037.60,A,5220.44318,N,00448.53181,E,0.033,,141119,,,A,V*13
964.1973 $GNRMC,122037.70,A,5220.44319,N,00448.53182,E,0.044,,141119,,,A,V*10
964.2925 $GNRMC,122037.80,A,5220.44319,N,00448.53182,E,0.017,,141119,,,A,V*19
964.3975 $GNRMC,122037.90,A,5220.44319,N,00448.53182,E,0.034,,141119,,,A,V*19
964.5043 $GNRMC,122038.00,A,5220.44319,N,00448.53182,E,0.100,,141119,,,A,V*19
964.6105 $GNRMC,122038.10,A,5220.44319,N,00448.53182,E,0.088,,141119,,,A,V*19
964.7044 $GNRMC,122038.20,A,5220.44320,N,00448.53182,E,0.087,,141119,,,A,V*1F
964.8038 $GNRMC,122038.30,A,5220.44320,N,00448.53182,E,0.065,,141119,,,A,V*12
964.9013 $GNRMC,122038.40,A,5220.44320,N,00448.53182,E,0.044,,141119,,,A,V*16
965.0002 $GNRMC,122038.50,A,5220.44320,N,00448.53182,E,0.048,,141119,,,A,V*1B
965.0992 $GNRMC,122038.60,A,5220.44320,N,00448.53182,E,0.068,,141119,,,A,V*1A
965.1934 $GNRMC,122038.70,A,5220.44321,N,00448.53182,E,0.067,,141119,,,A,V*15
965.2964 $GNRMC,122038.80,A,5220.44321,N,00448.53182,E,0.019,,141119,,,A,V*13
965.3964 $GNRMC,122038.90,A,5220.44321,N,00448.53182,E,0.030,,141119,,,A,V*19
965.5056 $GNRMC,122039.00,A,5220.44321,N,00448.53182,E,0.017,,141119,,,A,V*14
965.6082 $GNRMC,122039.10,A,5220.44321,N,00448.53182,E,0.019,,141119,,,A,V*1B
965.7032 $GNRMC,122039.20,A,5220.44322,N,00448.53182,E,0.027,,141119,,,A,V*16
965.8035 $GNRMC,122039.30,A,5220.44322,N,00448.53182,E,0.066,,141119,,,A,V*12
965.9001 $GNRMC,122039.40,A,5220.44322,N,00448.53182,E,0.014,,141119,,,A,V*10
966.0003 $GNRMC,122039.50,A,5220.44322,N,00448.53182,E,0.057,,141119,,,A,V*16
966.0956 $GNRMC,122039.60,A,5220.44322,N,00448.53182,E,0.022,,141119,,,A,V*17
966.1984 $GNRMC,122039.70,A,5220.44323,N,00448.53182,E,0.026,,141119,,,A,V*13
966.2974 $GNRMC,122039.80,A,5220.44323,N,00448.53182,E,0.011,,141119,,,A,V*18
966.3974 $GNRMC,122039.90,A,5220.44323,N,00448.53182,E,0.042,,141119,,,A,V*1F
966.5035 $GNRMC,122040.00,A,5220.44323,N,00448.53182,E,0.037,,141119,,,A,V*1A
966.6072 $GNRMC,122040.10,A,5220.44323,N,00448.53182,E,0.026,,141119,,,A,V*1B
966.7033 $GNRMC,122040.20,A,5220.44324,N,00448.53182,E,0.014,,141119,,,A,V*1E
966.8034 $GNRMC,122040.30,A,5220.44324,N,00448.53182,E,0.026,,141119,,,A,V*1E
966.9002 $GNRMC,122040.40,A,5220.44324,N,00448.53183,E,0.020,,141119,,,A,V*1E
966.9924 $GNRMC,122040.50,A,5220.44324,N,00448.53183,E,0.023,,141119,,,A,V*1C
967.0974 $GNRMC,122040.60,A,5220.44324,N,00448.53183,E,0.055,,141119,,,A,V*1E
967.1981 $GNRMC,122040.70,A,5220.44324,N,00448.53183,E,0.060,,141119,,,A,V*19
967.2964 $GNRMC,122040.80,A,5220.44325,N,00448.53183,E,0.011,,141119,,,A,V*11
967.3956 $GNRMC,122040.90,A,5220.44325,N,00448.53183,E,0.027,,141119,,,A,V*15
967.5044 $GNRMC,122041.00,A,5220.44325,N,00448.53183,E,0.058,,141119,,,A,V*15
967.6035 $GNRMC,122041.10,A,5220.44325,N,00448.53183,E,0.033,,141119,,,A,V*19
967.7015 $GNRMC,122041.20,A,5220.44325,N,00448.53183,E,0.067,,141119,,,A,V*1B
967.8024 $GNRMC,122041.30,A,5220.44325,N,00448.53183,E,0.060,,141119,,,A,V*1D
967.8962 $GNRMC,122041.40,A,5220.44325,N,00448.53183,E,0.042,,141119,,,A,V*1A
968.0005 $GNRMC,122041.50,A,5220.44325,N,00448.53183,E,0.048,,141119,,,A,V*11
968.1002 $GNRMC,122041.60,A,5220.44325,N,00448.53182,E,0.026,,141119,,,A,V*1B
968.2031 $GNRMC,122041.70,A,5220.44325,N,00448.53182,E,0.015,,141119,,,A,V*1A
968.2984 $GNRMC,122041.80,A,5220.44325,N,00448.53182,E,0.067,,141119,,,A,V*10
968.3956 $GNRMC,122041.90,A,5220.44325,N,00448.53182,E,0.051,,141119,,,A,V*14
968.5059 $GNRMC,122042.00,A,5220.44325,N,00448.53182,E,0.055,,141119,,,A,V*1A
968.5961 $GNRMC,122042.10,A,5220.44325,N,00448.53182,E,0.045,,141119,,,A,V*1A
968.6995 $GNRMC,122042.20,A,5220.44325,N,00448.53182,E,0.061,,141119,,,A,V*1F
968.7931 $GNRMC,122042.30,A,5220.44325,N,00448.53182,E,0.015,,141119,,,A,V*1D
968.899 $GNRMC,122042.40,A,5220.44325,N,00448.53182,E,0.069,,141119,,,A,V*11
968.9964 $GNRMC,122042.50,A,5220.44325,N,00448.53182,E,0.022,,141119,,,A,V*1F
969.0965 $GNRMC,122042.60,A,5220.44325,N,00448.53182,E,0.066,,141119,,,A,V*1C
969.1956 $GNRMC,122042.70,A,5220.44325,N,00448.53182,E,0.038,,141119,,,A,V*16
969.2946 $GNRMC,122042.80,A,5220.44326,N,00448.53182,E,0.041,,141119,,,A,V*14
969.3962 $GNRMC,122042.90,A,5220.44325,N,00448.53182,E,0.113,,141119,,,A,V*10
969.5032 $GNRMC,122043.00,A,5220.44325,N,00448.53182,E,0.070,,141119,,,A,V*1C
969.6001 $GNRMC,122043.10,A,5220.44326,N,00448.53182,E,0.019,,141119,,,A,V*11
969.6942 $GNRMC,122043.20,A,5220.44326,N,00448.53182,E,0.046,,141119,,,A,V*18
969.8002 $GNRMC,122043.30,A,5220.44326,N,00448.53182,E,0.039,,141119,,,A,V*11
969.8994 $GNRMC,122043.40,A,5220.44326,N,00448.53182,E,0.041,,141119,,,A,V*19
969.999 $GNRMC,122043.50,A,5220.44326,N,00448.53182,E,0.009,,141119,,,A,V*14
970.0984 $GNRMC,122043.60,A,5220.44326,N,00448.53182,E,0.016,,141119,,,A,V*19
970.1993 $GNRMC,122043.70,A,5220.44326,N,00448.53182,E,0.017,,141119,,,A,V*19
970.299 $GNRMC,122043.80,A,5220.44326,N,00448.53182,E,0.051,,141119,,,A,V*14
970.3986 $GNRMC,122043.90,A,5220.44326,N,00448.53182,E,0.093,,141119,,,A,V*1B
970.5052 $GNRMC,122044.00,A,5220.44326,N,00448.53182,E,0.076,,141119,,,A,V*1E
970.6003 $GNRMC,122044.10,A,5220.44326,N,00448.53182,E,0.055,,141119,,,A,V*1E
970.7025 $GNRMC,122044.20,A,5220.44326,N,00448.53182,E,0.032,,141119,,,A,V*1C
970.8015 $GNRMC,122044.30,A,5220.44326,N,00448.53182,E,0.066,,141119,,,A,V*1C
970.9012 $GNRMC,122044.40,A,5220.44326,N,00448.53182,E,0.028,,141119,,,A,V*11
970.9986 $GNRMC,122044.50,A,5220.44327,N,00448.53182,E,0.020,,141119,,,A,V*19
971.0985 $GNRMC,122044.60,A,5220.44327,N,00448.53182,E,0.023,,141119,,,A,V*19
971.1995 $GNRMC,122044.70,A,5220.44327,N,00448.53182,E,0.032,,141119,,,A,V*18
971.2961 $GNRMC,122044.80,A,5220.44327,N,00448.53182,E,0.058,,141119,,,A,V*1B
971.3962 $GNRMC,122044.90,A,5220.44327,N,00448.53182,E,0.023,,141119,,,A,V*16
971.499 $GNRMC,122045.00,A,5220.44327,N,00448.53182,E,0.066,,141119,,,A,V*1F
971.5984 $GNRMC,122045.10,A,5220.44327,N,00448.53182,E,0.029,,141119,,,A,V*15
971.7014 $GNRMC,122045.20,A,5220.44327,N,00448.53182,E,0.019,,141119,,,A,V*15
971.8001 $GNRMC,122045.30,A,5220.44327,N,00448.53182,E,0.034,,141119,,,A,V*1B
971.9002 $GNRMC,122045.40,A,5220.44327,N,00448.53183,E,0.041,,141119,,,A,V*1F
971.999 $GNRMC,122045.50,A,5220.44328,N,00448.53183,E,0.006,,141119,,,A,V*12
972.0991 $GNRMC,122045.60,A,5220.44328,N,00448.53183,E,0.039,,141119,,,A,V*1D
972.1964 $GNRMC,122045.70,A,5220.44328,N,00448.53183,E,0.045,,141119,,,A,V*17
972.2975 $GNRMC,122045.80,A,5220.44328,N,00448.53183,E,0.065,,141119,,,A,V*1A
972.3925 $GNRMC,122045.90,A,5220.44328,N,00448.53183,E,0.051,,141119,,,A,V*1C
972.5045 $GNRMC,122046.00,A,5220.44328,N,00448.53183,E,0.066,,141119,,,A,V*12
972.6041 $GNRMC,122046.10,A,5220.44329,N,00448.53183,E,0.020,,141119,,,A,V*10
972.6991 $GNRMC,122046.20,A,5220.44328,N,00448.53183,E,0.081,,141119,,,A,V*19
972.7986 $GNRMC,122046.30,A,5220.44329,N,00448.53183,E,0.050,,141119,,,A,V*15
972.8995 $GNRMC,122046.40,A,5220.44328,N,00448.53183,E,0.144,,141119,,,A,V*17
972.9984 $GNRMC,122046.50,A,5220.44328,N,00448.53183,E,0.020,,141119,,,A,V*15
973.1013 $GNRMC,122046.60,A,5220.44329,N,00448.53183,E,0.002,,141119,,,A,V*17
973.1959 $GNRMC,122046.70,A,5220.44329,N,00448.53183,E,0.039,,141119,,,A,V*1E
973.2903 $GNRMC,122046.80,A,5220.44329,N,00448.53183,E,0.023,,141119,,,A,V*1A
973.3958 $GNRMC,122046.90,A,5220.44329,N,00448.53183,E,0.033,,141119,,,A,V*1A
973.5035 $GNRMC,122047.00,A,5220.44329,N,00448.53182,E,0.026,,141119,,,A,V*17
973.5985 $GNRMC,122047.10,A,5220.44329,N,00448.53182,E,0.075,,141119,,,A,V*10
973.6982 $GNRMC,122047.20,A,5220.44329,N,00448.53182,E,0.031,,141119,,,A,V*13
973.799 $GNRMC,122047.30,A,5220.44330,N,00448.53183,E,0.015,,141119,,,A,V*1D
973.8986 $GNRMC,122047.40,A,5220.44330,N,00448.53183,E,0.036,,141119,,,A,V*1B
973.9973 $GNRMC,122047.50,A,5220.44330,N,00448.53183,E,0.093,,141119,,,A,V*15
974.0965 $GNRMC,122047.60,A,5220.44330,N,00448.53183,E,0.041,,141119,,,A,V*19
974.1925 $GNRMC,122047.70,A,5220.44330,N,00448.53183,E,0.063,,141119,,,A,V*18
974.2983 $GNRMC,122047.80,A,5220.44330,N,00448.53183,E,0.028,,141119,,,A,V*18
974.3983 $GNRMC,122047.90,A,5220.44330,N,00448.53183,E,0.036,,141119,,,A,V*16
974.5044 $GNRMC,122048.00,A,5220.44330,N,00448.53183,E,0.062,,141119,,,A,V*11
974.6041 $GNRMC,122048.10,A,5220.44330,N,00448.53183,E,0.030,,141119,,,A,V*17
974.6971 $GNRMC,122048.20,A,5220.44331,N,00448.53183,E,0.046,,141119,,,A,V*14
974.797 $GNRMC,122048.30,A,5220.44331,N,00448.53182,E,0.010,,141119,,,A,V*17
974.8956 $GNRMC,122048.40,A,5220.44331,N,00448.53182,E,0.034,,141119,,,A,V*16
974.9956 $GNRMC,122048.50,A,5220.44331,N,00448.53182,E,0.026,,141119,,,A,V*14
975.0905 $GNRMC,122048.60,A,5220.44331,N,00448.53182,E,0.021,,141119,,,A,V*10
975.1954 $GNRMC,122048.70,A,5220.44331,N,00448.53182,E,0.025,,141119,,,A,V*15
975.2945 $GNRMC,122048.80,A,5220.44331,N,00448.53182,E,0.111,,141119,,,A,V*1C
975.3961 $GNRMC,122048.90,A,5220.44331,N,00448.53182,E,0.055,,141119,,,A,V*1C
975.5031 $GNRMC,122049.00,A,5220.44331,N,00448.53182,E,0.021,,141119,,,A,V*17
975.5981 $GNRMC,122049.10,A,5220.44331,N,00448.53182,E,0.052,,141119,,,A,V*12
975.7001 $GNRMC,122049.20,A,5220.44332,N,00448.53182,E,0.033,,141119,,,A,V*15
975.7994 $GNRMC,122049.30,A,5220.44332,N,00448.53182,E,0.020,,141119,,,A,V*16
975.8974 $GNRMC,122049.40,A,5220.44332,N,00448.53182,E,0.039,,141119,,,A,V*19
975.9931 $GNRMC,122049.50,A,5220.44332,N,00448.53182,E,0.009,,141119,,,A,V*1B
976.0981 $GNRMC,122049.60,A,5220.44332,N,00448.53182,E,0.035,,141119,,,A,V*17
976.1946 $GNRMC,122049.70,A,5220.44332,N,00448.53182,E,0.020,,141119,,,A,V*12
976.2961 $GNRMC,122049.80,A,5220.44332,N,00448.53182,E,0.014,,141119,,,A,V*1A
976.3944 $GNRMC,122049.90,A,5220.44332,N,00448.53182,E,0.016,,141119,,,A,V*19
976.5029 $GNRMC,122050.00,A,5220.44332,N,00448.53182,E,0.041,,141119,,,A,V*1A
976.6058 $GNRMC,122050.10,A,5220.44332,N,00448.53181,E,0.031,,141119,,,A,V*1F
976.6995 $GNRMC,122050.20,A,5220.44332,N,00448.53181,E,0.047,,141119,,,A,V*1D
976.8176 $GNRMC,122050.30,A,5220.44333,N,00448.53181,E,0.030,,141119,,,D,V*18
976.9073 $GNRMC,122050.40,A,5220.44333,N,00448.53180,E,0.043,,141119,,,D,V*1A
977.0192 $GNRMC,122050.50,A,5220.44333,N,00448.53180,E,0.022,,141119,,,D,V*1C
977.1104 $GNRMC,122050.60,A,5220.44333,N,00448.53179,E,0.029,,141119,,,D,V*12
977.2121 $GNRMC,122050.70,A,5220.44333,N,00448.53179,E,0.016,,141119,,,D,V*1F
977.3122 $GNRMC,122050.80,A,5220.44333,N,00448.53178,E,0.033,,141119,,,D,V*16
977.4115 $GNRMC,122050.90,A,5220.44334,N,00448.53178,E,0.083,,141119,,,D,V*1B
977.5244 $GNRMC,122051.00,A,5220.44334,N,00448.53177,E,0.022,,141119,,,D,V*17
977.6653 $GNRMC,122051.15,A,5220.44334,N,00448.53177,E,0.030,,141119,,,D,V*10
977.7621 $GNRMC,122051.25,A,5220.44334,N,00448.53177,E,0.042,,141119,,,D,V*16
977.8625 $GNRMC,122051.35,A,5220.44334,N,00448.53176,E,0.009,,141119,,,D,V*19
977.9642 $GNRMC,122051.45,A,5220.44334,N,00448.53176,E,0.052,,141119,,,D,V*10
978.0651 $GNRMC,122051.55,A,5220.44333,N,00448.53178,E,0.031,,141119,,,F,V*1F
978.1626 $GNRMC,122051.65,A,5220.44333,N,00448.53179,E,0.007,,141119,,,F,V*18
978.2672 $GNRMC,122051.75,A,5220.44333,N,00448.53179,E,0.066,,141119,,,F,V*1E
978.3633 $GNRMC,122051.85,A,5220.44333,N,00448.53179,E,0.060,,141119,,,F,V*17
978.4691 $GNRMC,122051.95,A,5220.44333,N,00448.53179,E,0.035,,141119,,,F,V*16
978.5733 $GNRMC,122052.05,A,5220.44333,N,00448.53179,E,0.073,,141119,,,F,V*1E
978.6631 $GNRMC,122052.15,A,5220.44333,N,00448.53179,E,0.073,,141119,,,F,V*1F
978.7915 $GNRMC,122052.25,A,5220.44333,N,00448.53179,E,0.038,,141119,,,F,V*13
978.9213 $GNRMC,122052.40,A,5220.44333,N,00448.53179,E,0.016,,141119,,,F,V*1C
979.0203 $GNRMC,122052.50,A,5220.44333,N,00448.53179,E,0.041,,141119,,,F,V*1F
979.1184 $GNRMC,122052.60,A,5220.44333,N,00448.53179,E,0.049,,141119,,,F,V*14
979.2182 $GNRMC,122052.70,A,5220.44333,N,00448.53179,E,0.005,,141119,,,F,V*1D
979.3194 $GNRMC,122052.80,A,5220.44333,N,00448.53179,E,0.012,,141119,,,F,V*14
979.4189 $GNRMC,122052.90,A,5220.44333,N,00448.53179,E,0.036,,141119,,,F,V*13
979.5292 $GNRMC,122053.00,A,5220.44333,N,00448.53179,E,0.027,,141119,,,F,V*1B
979.6703 $GNRMC,122053.15,A,5220.44333,N,00448.53179,E,0.004,,141119,,,F,V*1E
979.7956 $GNRMC,122053.25,A,5220.44333,N,00448.53179,E,0.028,,141119,,,F,V*13
979.9242 $GNRMC,122053.40,A,5220.44334,N,00448.53179,E,0.094,,141119,,,F,V*10
980.0195 $GNRMC,122053.50,A,5220.44333,N,00448.53179,E,0.039,,141119,,,F,V*11
980.1184 $GNRMC,122053.60,A,5220.44333,N,00448.53179,E,0.011,,141119,,,F,V*18
980.2191 $GNRMC,122053.70,A,5220.44334,N,00448.53179,E,0.052,,141119,,,F,V*19
980.3205 $GNRMC,122053.80,A,5220.44333,N,00448.53179,E,0.019,,141119,,,F,V*1E
980.4165 $GNRMC,122053.90,A,5220.44400,N,00448.52991,E,0.028,,141119,,,R,V*01
980.5325 $GNRMC,122054.00,A,5220.44400,N,00448.52991,E,0.019,,141119,,,R,V*0D
980.6693 $GNRMC,122054.15,A,5220.44399,N,00448.52991,E,0.013,,141119,,,R,V*04
980.7702 $GNRMC,122054.25,A,5220.44399,N,00448.52991,E,0.092,,141119,,,R,V*0E
980.8713 $GNRMC,122054.35,A,5220.44399,N,00448.52990,E,0.030,,141119,,,R,V*06
980.9691 $GNRMC,122054.45,A,5220.44399,N,00448.52990,E,0.070,,141119,,,R,V*05
981.0701 $GNRMC,122054.55,A,5220.44399,N,00448.52990,E,0.069,,141119,,,R,V*0C
981.1654 $GNRMC,122054.65,A,5220.44399,N,00448.52991,E,0.058,,141119,,,R,V*0C
981.2673 $GNRMC,122054.75,A,5220.44399,N,00448.52991,E,0.066,,141119,,,R,V*00
981.3625 $GNRMC,122054.85,A,5220.44399,N,00448.52991,E,0.051,,141119,,,R,V*0B
981.4695 $GNRMC,122054.95,A,5220.44399,N,00448.52991,E,0.072,,141119,,,R,V*0B
981.5705 $GNRMC,122055.05,A,5220.44399,N,00448.52991,E,0.010,,141119,,,R,V*07
981.6703 $GNRMC,122055.15,A,5220.44399,N,00448.52990,E,0.022,,141119,,,R,V*06
981.7693 $GNRMC,122055.25,A,5220.44399,N,00448.52991,E,0.039,,141119,,,R,V*0E
981.89 $GNRMC,122055.35,A,5220.44399,N,00448.52991,E,0.012,,141119,,,R,V*06
982.0165 $GNRMC,122055.50,A,5220.44400,N,00448.52991,E,0.094,,141119,,,R,V*0C
982.1162 $GNRMC,122055.60,A,5220.44399,N,00448.52991,E,0.022,,141119,,,R,V*05
982.214 $GNRMC,122055.70,A,5220.44399,N,00448.52991,E,0.069,,141119,,,R,V*0B
982.3064 $GNRMC,122055.80,A,5220.44399,N,00448.52991,E,0.051,,141119,,,R,V*0F
982.4142 $GNRMC,122055.90,A,5220.44400,N,00448.52991,E,0.089,,141119,,,R,V*0C
982.5273 $GNRMC,122056.00,A,5220.44399,N,00448.52991,E,0.094,,141119,,,R,V*0D
982.6683 $GNRMC,122056.15,A,5220.44400,N,00448.52991,E,0.096,,141119,,,R,V*0C
982.7684 $GNRMC,122056.25,A,5220.44399,N,00448.52991,E,0.022,,141119,,,R,V*07
982.869 $GNRMC,122056.35,A,5220.44400,N,00448.52991,E,0.019,,141119,,,R,V*09
982.9643 $GNRMC,122056.45,A,5220.44400,N,00448.52991,E,0.068,,141119,,,R,V*08
983.0666 $GNRMC,122056.55,A,5220.44400,N,00448.52991,E,0.014,,141119,,,R,V*02
983.1625 $GNRMC,122056.65,A,5220.44399,N,00448.52991,E,0.037,,141119,,,R,V*07
983.264 $GNRMC,122056.75,A,5220.44399,N,00448.52991,E,0.040,,141119,,,R,V*06
983.3656 $GNRMC,122056.85,A,5220.44399,N,00448.52991,E,0.058,,141119,,,R,V*00
983.4745 $GNRMC,122056.95,A,5220.44399,N,00448.52991,E,0.054,,141119,,,R,V*0D
983.5742 $GNRMC,122057.05,A,5220.44399,N,00448.52991,E,0.111,,141119,,,R,V*05
983.6652 $GNRMC,122057.15,A,5220.44399,N,00448.52991,E,0.075,,141119,,,R,V*07
983.7702 $GNRMC,122057.25,A,5220.44399,N,00448.52991,E,0.060,,141119,,,R,V*00
983.8645 $GNRMC,122057.35,A,5220.44400,N,00448.52991,E,0.022,,141119,,,R,V*00
983.9662 $GNRMC,122057.45,A,5220.44400,N,00448.52991,E,0.051,,141119,,,R,V*03
984.0616 $GNRMC,122057.55,A,5220.44400,N,00448.52991,E,0.079,,141119,,,R,V*08
984.1626 $GNRMC,122057.65,A,5220.44399,N,00448.52991,E,0.040,,141119,,,R,V*06
984.2645 $GNRMC,122057.75,A,5220.44399,N,00448.52991,E,0.059,,141119,,,R,V*0F
984.3626 $GNRMC,122057.85,A,5220.44399,N,00448.52991,E,0.008,,141119,,,R,V*04
984.4674 $GNRMC,122057.95,A,5220.44399,N,00448.52991,E,0.109,,141119,,,R,V*05
984.5771 $GNRMC,122058.05,A,5220.44399,N,00448.52991,E,0.023,,141119,,,R,V*0A
984.7234 $GNRMC,122058.20,A,5220.44399,N,00448.52991,E,0.088,,141119,,,R,V*0C
984.8191 $GNRMC,122058.30,A,5220.44399,N,00448.52990,E,0.073,,141119,,,R,V*08
984.9196 $GNRMC,122058.40,A,5220.44400,N,00448.52991,E,0.037,,141119,,,R,V*09
985.0132 $GNRMC,122058.50,A,5220.44400,N,00448.52991,E,0.033,,141119,,,R,V*0C
985.1214 $GNRMC,122058.60,A,5220.44400,N,00448.52991,E,0.022,,141119,,,R,V*0F
985.2185 $GNRMC,122058.70,A,5220.44400,N,00448.52991,E,0.022,,141119,,,R,V*0E
985.3175 $GNRMC,122058.80,A,5220.44399,N,00448.52990,E,0.011,,141119,,,R,V*07
985.4176 $GNRMC,122058.90,A,5220.44399,N,00448.52990,E,0.005,,141119,,,R,V*03
985.5402 $GNRMC,122059.00,A,5220.44399,N,00448.52990,E,0.021,,141119,,,R,V*0D
985.6703 $GNRMC,122059.15,A,5220.44399,N,00448.52990,E,0.049,,141119,,,R,V*07
985.7713 $GNRMC,122059.25,A,5220.44399,N,00448.52990,E,0.027,,141119,,,R,V*0C
985.866 $GNRMC,122059.35,A,5220.44399,N,00448.52990,E,0.003,,141119,,,R,V*0B
985.9673 $GNRMC,122059.45,A,5220.44399,N,00448.52990,E,0.068,,141119,,,R,V*01
986.0703 $GNRMC,122059.55,A,5220.44399,N,00448.52990,E,0.022,,141119,,,R,V*0E
986.1693 $GNRMC,122059.65,A,5220.44399,N,00448.52990,E,0.027,,141119,,,R,V*08
986.2693 $GNRMC,122059.75,A,5220.44399,N,00448.52990,E,0.047,,141119,,,R,V*0F
986.3683 $GNRMC,122059.85,A,5220.44399,N,00448.52990,E,0.040,,141119,,,R,V*07
986.4745 $GNRMC,122059.95,A,5220.44399,N,00448.52990,E,0.013,,141119,,,R,V*00
986.5844 $GNRMC,122100.05,A,5220.44399,N,00448.52990,E,0.047,,141119,,,R,V*05
986.7193 $GNRMC,122100.20,A,5220.44399,N,00448.52990,E,0.028,,141119,,,R,V*0B
986.8101 $GNRMC,122100.30,A,5220.44399,N,00448.52990,E,0.069,,141119,,,R,V*0F
986.9163 $GNRMC,122100.40,A,5220.44399,N,00448.52990,E,0.043,,141119,,,R,V*00
987.0143 $GNRMC,122100.50,A,5220.44398,N,00448.52990,E,0.138,,141119,,,R,V*0D
987.1145 $GNRMC,122100.60,A,5220.44399,N,00448.52990,E,0.047,,141119,,,R,V*06
987.216 $GNRMC,122100.70,A,5220.44399,N,00448.52990,E,0.014,,141119,,,R,V*01
987.3153 $GNRMC,122100.80,A,5220.44399,N,00448.52990,E,0.017,,141119,,,R,V*0D
987.4142 $GNRMC,122100.90,A,5220.44399,N,00448.52990,E,0.019,,141119,,,R,V*02
987.5261 $GNRMC,122101.00,A,5220.44399,N,00448.52990,E,0.080,,141119,,,R,V*0A
987.6115 $GNRMC,122101.10,A,5220.44399,N,00448.52990,E,0.069,,141119,,,R,V*0C
987.7133 $GNRMC,122101.20,A,5220.44399,N,00448.52990,E,0.104,,141119,,,R,V*05
987.8195 $GNRMC,122101.30,A,5220.44399,N,00448.52990,E,0.101,,141119,,,R,V*01
987.916 $GNRMC,122101.40,A,5220.44399,N,00448.52990,E,0.090,,141119,,,R,V*0F
988.0166 $GNRMC,122101.50,A,5220.44399,N,00448.52990,E,0.097,,141119,,,R,V*09
988.1145 $GNRMC,122101.60,A,5220.44399,N,00448.52990,E,0.173,,141119,,,R,V*01
988.2212 $GNRMC,122101.70,A,5220.44399,N,00448.52990,E,0.024,,141119,,,R,V*03
988.3184 $GNRMC,122101.80,A,5220.44399,N,00448.52990,E,0.048,,141119,,,R,V*06
988.4181 $GNRMC,122101.90,A,5220.44399,N,00448.52990,E,0.130,,141119,,,R,V*09
988.5345 $GNRMC,122102.00,A,5220.44399,N,00448.52990,E,0.023,,141119,,,R,V*00
988.6663 $GNRMC,122102.15,A,5220.44399,N,00448.52990,E,0.023,,141119,,,R,V*04
988.7704 $GNRMC,122102.25,A,5220.44399,N,00448.52990,E,0.034,,141119,,,R,V*01
988.8682 $GNRMC,122102.35,A,5220.44399,N,00448.52990,E,0.030,,141119,,,R,V*04
988.9663 $GNRMC,122102.45,A,5220.44399,N,00448.52990,E,0.013,,141119,,,R,V*02
989.0681 $GNRMC,122102.55,A,5220.44399,N,00448.52990,E,0.016,,141119,,,R,V*06
989.1663 $GNRMC,122102.65,A,5220.44399,N,00448.52990,E,0.049,,141119,,,R,V*0F
989.2676 $GNRMC,122102.75,A,5220.44399,N,00448.52990,E,0.018,,141119,,,R,V*0A
989.3694 $GNRMC,122102.85,A,5220.44399,N,00448.52990,E,0.044,,141119,,,R,V*0C
